stop_id,stop_code,stop_name,stop_lat,stop_lon
1018,18736,"Marszowicka",51.1631676200,16.8785105900
3524,20267,"DWORZEC GŁÓWNY",51.0996462200,17.0372634900
2948,10333,"Wzgórze Partyzantów",51.1037869200,17.0384902700
697,23163,"Jutrosińska",51.1463619300,17.0418826300
1501,12206,"Kwiska",51.1252752500,16.9834276700
1674,24404,"ZOO",51.1055608100,17.0778982000
129,12503,"Metalowców",51.1327474000,16.9582917200
76,18733,"Bojanowska",51.1653264500,16.8818990400
1982,21136,"BARDZKA (Cmentarz)",51.0732655400,17.0532944900
3822,24313,"8 Maja",51.1135576300,17.0922856300
1749,20815,"PL. GRUNWALDZKI",51.1114516500,17.0605291900
231,10510,"Głogowska",51.1174262400,17.0035309700
1630,11404,"Stalowa",51.0996657800,17.0016518700
91,18707,"Główna",51.1636348700,16.8966882100
124,12713,"Wiślańska",51.1359184100,16.9790481300
3779,18119,"Fieldorfa",51.1476506000,16.9082140000
1367,20825,"Bujwida",51.1133631600,17.0669058200
1196,31341013,"Szczodre - Trzebnicka",51.1903616100,17.1841944200
3116,17511,"Strachowice General Aviation",51.1050111500,16.8990643000
262,12126,"Nowy Dwór (Rogowska)",51.1186519500,16.9537881200
666,23107,"OSOBOWICKA (Cmentarz)",51.1354559000,17.0042563000
33,20312,"pl. Wróblewskiego",51.1053429000,17.0489335300
2783,23109,"most Milenijny",51.1365115200,16.9992727300
1623,20666,"Słowiańska",51.1235419100,17.0402172300
1800,23102,"most Osobowicki",51.1330231600,17.0261839300
1815,23723,"Bagatela",51.1527626500,17.0693892200
1614,10006,"Rynek",51.1098340800,17.0265935000
1306,12149,"Szkocka",51.1091444900,16.9685528800
3787,18746,"Wojanowska (Stoszowska)",51.1514870000,16.9099300000
2040,98360,"Las Mokrzański",51.1759061700,16.8335489400
340,16512,"Przyjaźni",51.0687684000,17.0047434500
1418,10021,"GALERIA DOMINIKAŃSKA",51.1085289400,17.0387010800
3688,31921001,"Raków I",51.1700792400,17.2776887800
50,29517,"KŁOKOCZYCE",51.1569605300,17.0962815100
585,24714,"Smocza",51.1033559900,17.1547421600
4020,24137,"Kowalska 56",51.1360800000,17.0975300000
1582,10604,"PL. STASZICA",51.1224624500,17.0302590500
1396,20609,"DWORZEC NADODRZE",51.1242294000,17.0350092500
3474,92052012,"Brzezinka Średzka - Główna",51.2158058000,16.8370802000
557,24514,"Okrzei",51.1064282400,17.0984639600
349,26314,"Ołtaszyn",51.0565016200,17.0249606900
480,21105,"Śliczna",51.0850864300,17.0349837600
1028,24121,"Działdowska",51.1331716300,17.1054383500
3307,50094985,"Radwanice - Szkoła",51.0486200000,17.1154640000
1120,21176,"SPISKA (Ośrodek sportu)",51.0835642600,17.0299742900
3271,50000057,"MOKRY DWÓR",51.0710700000,17.1237490000
3610,31917005,"Wilczyce - Dworska",51.1293687300,17.1550406900
1355,23010,"Bałtycka",51.1377841200,17.0301744800
2034,20622,"pl. Bema",51.1166631500,17.0417125500
1780,18303,"Zajazdowa",51.1480948200,16.8653655100
3355,51943003,"Bogusławice",50.9978560000,17.1049720000
560,24511,"Partyzantów",51.1062614300,17.0939924100
974,18329,"Ratyń - skrzyżowanie",51.1306630400,16.8475935500
356,26344,"Kutrzeby",51.0523518500,17.0194239600
4048,17741,"Jerzmanowo (Cmentarz)",51.1258930000,16.8858150000
637,23141,"Broniewskiego",51.1359043600,17.0353272200
3654,32911904,"Domaszczyn Kościół",51.1880685700,17.1647516000
3111,17317,"Zagony",51.1008794200,16.9422415200
2290,21117,"ROD Bajki",51.0825281300,17.0343704600
882,12528,"Metalowców",51.1322485600,16.9563613100
3368,50000028,"Kotowice - Cmentarna",51.0226600000,17.2333630000
3653,32618201,"Ramiszów",51.1887846200,17.1014066200
80,18372,"Wolska",51.1469110000,16.8693790000
1371,24409,"Chełmońskiego",51.1037567700,17.0909274000
261,12125,"Nowy Dwór (Rogowska)",51.1186231100,16.9548696300
235,10511,"Inowrocławska",51.1154377400,17.0152886900
2342,16705,"WAŁBRZYSKA",51.0648963600,16.9761323900
1627,24413,"Spółdzielcza",51.1022060200,17.1018083900
247,10548,"Śrubowa",51.1124317600,17.0010101300
1704,18389,"RUBCZAKA (Stacja kolejowa)",51.1433057600,16.8663781800
3462,24324,"Godebskiego (AWF Wrocław)",51.1138679100,17.0987194000
219,10517,"DŁUGA (Politechnika)",51.1252886200,17.0100183300
766,29302,"Palacha",51.1405715000,17.1264309300
3422,29135,"Psie Pole (Rondo Lotników Polskich)",51.1465900000,17.1153640000
1611,11206,"Rondo",51.0906902300,17.0171240100
3139,11314,"KRZYKI",51.0749540900,17.0063847900
3278,51938010,"Św. Katarzyna - Główna n ż",51.0321000000,17.1256280000
513,20321,"DWORCOWA",51.1010645000,17.0403796400
2306,26115,"ROD Mieczyk",51.0638894900,17.0724922200
2200,80362014,"Samotwór - Dębowa",51.1067160000,16.8365920000
392,16513,"Sowia",51.0737926200,17.0018449400
627,23133,"Pola",51.1367486200,17.0446982300
3705,31371004,"Godzieszowa (na wys. nr 8)",51.2374339300,17.1259322500
3769,11325,"Zaolziańska",51.0980482000,17.0254733100
3365,51933008,"Kotowice - Główna",51.0249480000,17.2316700000
779,23704,"Kasprowicza",51.1378651500,17.0536707600
925,11369,"Sanocka",51.0932632800,17.0300793500
3702,31453006,"Zaprężyn - skrzy.",51.2535233200,17.2062972700
509,21102,"DWORZEC AUTOBUSOWY",51.0965745500,17.0329804700
3675,31913001,"Jaksonowice - skrzy.",51.2495630900,17.2452439900
3396,51933002,"Groblice II-Kotowicka",51.0136830000,17.1752490000
2797,17729,"Żernicka (Stacja kolejowa)",51.1260832900,16.9142594700
1200,31341002,"Budziwojowice",51.2228853800,17.1881141400
3555,21162,"Armii Krajowej (Bogedaina)",51.0853469400,17.0652888100
259,12124,"Chociebuska",51.1146730400,16.9580598300
1804,29117,"Bierutowska 75",51.1559648100,17.1406814300
3470,90336011,"Wilkszyn - Miłoszyn",51.1827212000,16.8725008000
3469,92052013,"Brzezina - Chrobrego",51.2015223000,16.8347398000
1332,16706,"Marcepanowa",51.0623652800,16.9763931500
763,29123,"Gorlicka",51.1433204000,17.1203247000
3053,17315,"Trawowa",51.0970587400,16.9505113100
3792,23562,"Waniliowa",51.1784030000,16.9997520000
2727,10406,"pl. Strzegomski (Muzeum Współczesne)",51.1129278900,17.0077196800
3680,32614901,"Kamień Diamentowa",51.1671000000,17.2240627700
2298,16719,"ROD Bielany",51.0552190800,16.9775086500
3645,31371007,"Siedlec - Wrocławska/szkoła",51.2302522500,17.1148444300
2794,21157,"Nyska",51.0828854900,17.0549052400
71,18724,"Wilkszyńska",51.1736440100,16.8862201500
651,23113,"Różanka",51.1395030400,17.0216930800
3761,23511,"Perzowa",51.1765761700,16.9919465400
3354,50000052,"Sulimów",51.0010080000,17.1260740000
883,12527,"Metalowców",51.1322913500,16.9565849600
707,24108,"C.H. Korona",51.1408418900,17.0871082700
92,18712,"PRACZE ODRZAŃSKIE (Stacja kolejowa)",51.1713957000,16.9024931000
1376,11610,"GRABISZYŃSKA (Cmentarz)",51.0905846700,16.9769745800
3618,31918008,"Kamień - skrzy.",51.1668643000,17.2193349700
2793,12151,"MUCHOBÓR MAŁY (Stacja kolejowa)",51.1125786600,16.9706042000
1253,20316,"Na Niskich Łąkach",51.0966795600,17.0566469200
656,10704,"PL. STASZICA",51.1224616700,17.0302606800
3128,12113,"Centrum Zarządzania Kryzysowego",51.1146256000,16.9718827800
3405,716102,"Biskupice Podgórne LG Chem",51.0159220000,16.8869780000
2475,17723,"JARNOŁTÓW",51.1214176400,16.8439344000
609,24306,"Zacisze",51.1243518300,17.0778218200
3582,11364,"Weigla (Szpital)",51.0773993700,17.0191201400
564,24517,"Bacciarellego",51.1056363100,17.1104913100
78,18373,"Polkowicka",51.1554325000,16.8734630700
3459,24212,"Godebskiego (AWF Wrocław)",51.1139412900,17.0979923800
122,12716,"Dzielna",51.1386343100,16.9768901400
884,10515,"Poznańska",51.1219902600,17.0124829500
2951,18351,"Eluarda",51.1462280000,16.8674081100
1606,20265,"Pułaskiego",51.0982992200,17.0429557600
1397,11001,"DWORZEC AUTOBUSOWY",51.0971226700,17.0326441800
1268,11337,"Jastrzębia",51.0837239800,17.0100384700
166,17716,"Adamczewskich",51.1208439600,16.8695348600
2865,110005,"Rynek",51.1112028100,17.0270362800
3757,17305,"Stanisławowska (W.K. Formaty)",51.0968383300,16.9468478100
1703,31453018,"Bąków",51.2119353200,17.1594618000
2267,11331,"EPI",51.0978894400,17.0295311300
309,11511,"Krucza",51.0944236000,17.0107815500
717,29533,"Azaliowa",51.1639965000,17.1118338900
1305,20730,"Mosty Warszawskie",51.1283829800,17.0538427900
1343,11231,"Uniwersytet Ekonomiczny",51.0898889600,17.0286671900
1297,31920021,"Kątna",51.1326714700,17.2835237400
3786,18745,"Wojanowska (Olbrachtowska)",51.1530080000,16.9047590000
115,12707,"Górnicza",51.1406265500,16.9582568900
558,24513,"Okrzei",51.1063521600,17.0992530800
101,18718,"Zbożowa",51.1735297900,16.9121521600
397,17115,"Morelowskiego",51.0696805600,16.9689522000
3395,51943001,"Ozorzyce-Krasińskiego",50.9993410000,17.0833650000
2848,17126,"Jordanowska",51.0796664900,16.9574772400
242,10501,"PL. JANA PAWŁA II",51.1121544100,17.0207247200
581,24709,"Niedziałkowskiego",51.1087563000,17.1396307100
180,17704,"Żerniki",51.1230927200,16.9248345000
660,23308,"Las Osobowicki",51.1479741600,16.9838305100
440,21150,"Klimasa",51.0801615700,17.0624714800
3815,11546,"Gajowicka (szkoła)",51.0846041800,17.0038120300
3383,10241,"Narodowe Forum Muzyki",51.1078990000,17.0262940000
2479,12717,"KOZANÓW",51.1378201300,16.9679529700
1820,29505,"Przedwiośnie (Stacja kolejowa)",51.1604270700,17.1224171100
3342,50000015,"Siechnice - Elektrociepłownia",51.0378740000,17.1441960000
3417,11353,"Sudecka",51.0844339100,17.0180651400
632,23722,"Redycka",51.1486843000,17.0755699000
1642,16402,"Radio i Telewizja",51.0717340500,17.0059545500
765,29301,"Palacha",51.1404994500,17.1263193500
561,24505,"Spółdzielcza",51.1021114100,17.1023814200
3714,31920002,"Kiełczów - Sosnowa",51.1436487600,17.1586585100
330,11357,"Skierniewicka",51.0776501400,17.0144646000
1668,10408,"ZACHODNIA (Stacja kolejowa)",51.1163976900,17.0004091800
1945,29532,"OSIEDLE SOBIESKIEGO",51.1590262600,17.1324327000
848,110232,"Renoma",51.1037838900,17.0307293200
1951,11741,"Aleja Wędrowców",51.0879861000,16.9918824300
688,23524,"Żmigrodzka (Obwodnica)",51.1548384400,17.0288383100
664,23303,"Jarocińska",51.1423082100,16.9902143800
3588,31909007,"Łozina - Nowego Osiedla I",51.2335288100,17.1718061300
3340,50000043,"Iwiny - Słoneczna",51.0437400000,17.0783200000
1361,16406,"Braterska",51.0676164600,16.9995540000
3426,71951006,"Ślęza (ul. Przystankowa)",51.0369970000,16.9847500000
3889,18341,"Leśnica - Hermes",51.1460950500,16.8656923700
3525,10226,"Dworzec Główny (Stawowa)",51.0999048600,17.0338842900
367,723962,"Bielany - skrzyżowanie",51.0390917500,16.9709403100
815,110655,"Pomorska",51.1178954300,17.0308934600
3929,11544,"Modlińska",51.0814048600,17.0002057700
1408,11659,"FAT",51.0942408000,16.9803286000
716,29534,"Azaliowa",51.1641714100,17.1119364000
3934,11550,"RACŁAWICKA",51.0775900000,16.9847640000
18,723975,"BIELANY WROCŁAWSKIE",51.0327015600,16.9677890500
1314,120631,"Daszyńskiego",51.1263180700,17.0477574100
69,18726,"Krzelowska",51.1774615200,16.8786003600
3798,23140,"Bałtycka (szkoła)",51.1385991200,17.0288086600
943,10379,"Grabiszyńska",51.1022549400,17.0123390900
506,11302,"Rondo",51.0911494400,17.0178796300
3146,10500,"PL. JANA PAWŁA II",51.1127054600,17.0206180600
452,21129,"Morwowa",51.0759126400,17.0519091400
2296,25003,"KRAKOWSKA (Centrum handlowe)",51.0900349300,17.0646568700
3317,50094989,"Siechnice",51.0312020000,17.1418670000
1651,10015,"Uniwersytet",51.1137562100,17.0323867600
3339,50000042,"IWINY - pętla",51.0422930000,17.0723610000
3138,11313,"KRZYKI",51.0748550000,17.0062318900
3762,18516,"Maślicka (Osiedle)",51.1474924300,16.9477391900
2358,12603,"PILCZYCKA (Anima)",51.1351552600,16.9692437400
4039,10383,"Tęczowa",51.1056127700,17.0149223500
648,23116,"Bezpieczna",51.1412386800,17.0250751400
3456,11602,"Bzowa (Centrum Zajezdnia)",51.0976059800,16.9926512100
3251,18017,"Kosmonautów (Nowe Żerniki)",51.1391930000,16.9269190000
870,110255,"pl. Orląt Lwowskich",51.1077807100,17.0222147000
3277,51938007,"Św. Katarzyna - Główna n ż",51.0319200000,17.1253240000
217,12311,"Popowice",51.1263766400,16.9952899900
1665,18009,"Wschowska",51.1449086300,16.8814493900
1389,20611,"Dubois",51.1172784300,17.0342973300
3746,31913006,"Januszkowice - skrzy. Kępa",51.2327202700,17.2365359100
1276,24519,"Monte Cassino",51.1060319700,17.1055154300
652,23111,"Łużycka",51.1361168900,17.0166050300
2714,18383,"LEŚNICA",51.1448916300,16.8716380400
3481,90336005,"Pisarzowice - Odrzańska",51.2050515000,16.8524908000
160,17717,"Kośnego",51.1207106000,16.8640121100
265,17504,"Zagłoby",51.1095419000,16.9302482300
1903,24201,"Kochanowskiego",51.1150627500,17.0736171000
616,20721,"Wyszyńskiego",51.1227988000,17.0528858000
1755,18730,"Małomicka",51.1668052400,16.8867304900
522,10335,"Renoma",51.1041265100,17.0323177900
3432,21370005,"Psary - Szkoła",51.1867050000,17.0318510000
1154,10377,"pl. Legionów",51.1041647100,17.0201090300
2037,26306,"Parafialna",51.0631572800,17.0322484500
600,24117,"Bociania",51.1298900800,17.0971764700
2117,24138,"Kowalska I",51.1266857000,17.1156350600
1718,31913008,"Januszkowice - Wierzbowa",51.2238700800,17.2382264500
3397,51933001,"Groblice II-Kotowicka",51.0135110000,17.1750000000
3892,21145,"Bardzka",51.0827794400,17.0508081600
3898,23734,"pl. Daniłowskiego",51.1384677800,17.0586282800
3874,12138,"NOWY DWÓR (pętla)",51.1194207700,16.9515678100
2733,11378,"Pułtuska",51.0745575000,17.0164437100
630,23718,"Koszarowa",51.1402692700,17.0698749100
3884,29328,"LITEWSKA",51.1422889200,17.1275839200
710,29102,"Zielna",51.1454497500,17.1079144100
2124,18336,"Krajobrazowa",51.1291202900,16.8404182500
3477,90000002,"BRZEZINA (pętla)",51.2031854000,16.8264570000
19,16524,"Wojszycka",51.0677188700,17.0143228000
391,16515,"Chłodna",51.0751223400,16.9966708600
403,17103,"Wiejska",51.0781745600,16.9641083500
2537,25012,"Głubczycka",51.0800063400,17.0804495800
3868,91606012,"Łowęcice - Staw",51.1215010000,16.7404670000
3785,18744,"Wojanowska (Olbrachtowska)",51.1526980000,16.9049950000
1230,29312,"Poleska",51.1465301600,17.1290510900
1537,23006,"OSOBOWICKA (Cmentarz II)",51.1344896400,17.0112272400
705,23557,"POLANOWICE",51.1625272600,17.0459865000
79,18371,"Wolska",51.1466610000,16.8693550000
1970,25519,"Opatowicka nr 127",51.0919275700,17.1330333800
3027,31920012,"Śliwice",51.1290719500,17.2131062100
2949,24706,"Magellana",51.1135545300,17.1213349700
2955,25307,"Chińska",51.0608851300,17.0817574600
2515,17513,"Rdestowa",51.1112747700,16.8880577300
674,23508,"Kominiarska",51.1689266600,16.9971452000
2849,18330,"Ratyń - skrzyżowanie",51.1302853900,16.8476622600
679,23510,"LIPA PIOTROWSKA",51.1731299600,16.9946675500
3311,50000016,"Siechnice - ZOZ",51.0378200000,17.1409670000
3840,23538,"Lawendowa",51.1698500000,17.0002730000
518,120215,"Na Niskich Łąkach",51.0970555300,17.0554487900
981,18521,"Brodzka",51.1568793000,16.9229924000
885,18301,"LEŚNICA",51.1455383300,16.8703672200
3734,31371009,"Pasikurowice - Wrocławska (na wys. nr 14)",51.2154030100,17.1110910300
3736,31921004,"Raków II",51.1689016400,17.2771496900
2785,23202,"most Milenijny",51.1359163400,16.9984428200
2641,18526,"STADION WROCŁAW (Królewiecka)",51.1451620400,16.9491360000
3633,31911002,"Kępa - skrzy.",51.2410499100,17.1967672300
1795,24501,"Hala Stulecia",51.1070399600,17.0728323200
2870,23309,"RĘDZIN",51.1661503100,16.9667358800
1892,24111,"KROMERA",51.1317652000,17.0652074000
352,26311,"Kurpiów",51.0546745900,17.0268831300
3667,31909006,"Tokary - centrum",51.2330337300,17.1404028900
1079,31911001,"Kępa",51.2386183400,17.2092182200
1548,20202,"pl. Wróblewskiego",51.1052627400,17.0480874000
3437,90000014,"LUTYNIA",51.1350080000,16.7834535000
871,24321,"SĘPOLNO",51.1138712400,17.1039946400
1251,12505,"PILCZYCE",51.1364290200,16.9505078100
1064,10119,"GALERIA DOMINIKAŃSKA",51.1089984000,17.0411773100
1354,12405,"Bajana",51.1307276200,16.9671791900
927,11371,"Uniwersytet Ekonomiczny",51.0902433500,17.0286277000
100,18513,"Lubelska",51.1639163100,16.9191472700
2179,92052015,"Brzezina - Osiedle",51.1922540000,16.8334665000
2359,12606,"Modra",51.1366740600,16.9666521900
3681,32913201,"Domaszczyn Wrocławska sklep",51.1900472700,17.1708592500
3008,18114,"Kosmonautów (Szpital)",51.1418459500,16.9059439000
3389,17721,"Jarnołtowska (Samotworska)",51.1201541300,16.8498842600
3920,18348,"ŻAR",51.1501950000,16.8337850000
2019,23168,"Gąsiorowskiego",51.1442212600,17.0399977900
777,31917013,"Kiełczów - WODROL",51.1349012500,17.1756012400
1479,10605,"Kleczkowska",51.1267293200,17.0279064000
3044,29552,"Przebiśniegowa",51.1725207300,17.1133433600
1617,10003,"Rynek",51.1110477400,17.0269635300
1237,24317,"Stadion Olimpijski",51.1168254300,17.0900745800
181,17702,"Szczecińska",51.1224508500,16.9309962300
939,24722,"Mikołowska",51.1111693100,17.1367838100
3788,18747,"Wojanowska (Stoszowska)",51.1517690000,16.9097160000
3136,18714,"PRACZE ODRZAŃSKIE",51.1747050400,16.9066019500
567,24707,"Swojczyce",51.1145818000,17.1288162200
528,25516,"Na Grobli",51.1014735800,17.0673626300
1363,23014,"Broniewskiego",51.1353023000,17.0363349100
3599,30098011,"Mirków - Sportowa",51.1634077900,17.1572986300
2010,11368,"PARK POŁUDNIOWY",51.0726200500,17.0107435600
785,12519,"KUŹNIKI (Stacja kolejowa)",51.1262151500,16.9550870400
2579,12544,"Bystrzycka",51.1240088700,16.9590017800
809,12130,"Kołobrzeska",51.1215371800,16.9469938200
3006,18016,"Kosmonautów (Szpital)",51.1417354600,16.9060826300
465,25301,"Wiaduktowa",51.0754529800,17.0760928600
662,23305,"Lipska",51.1448119600,16.9867691300
2953,110222,"Wzgórze Partyzantów",51.1042805600,17.0374997100
301,111403,"Stalowa",51.0996909100,17.0014907300
3899,23714,"pl. Daniłowskiego",51.1393806500,17.0609120900
1308,12533,"Gądowianka",51.1192350200,16.9710863800
1532,11652,"Ojca Beyzyma",51.0904155400,16.9924411100
2527,21131,"GAJ",51.0769005700,17.0419316500
146,18316,"Trzmielowicka",51.1409576600,16.8546078700
139,18141,"Złotnicka",51.1432805300,16.8890339000
3652,32618302,"Ramiszów",51.1887837000,17.1015445200
2055,21028,"Świeradowska",51.0770472100,17.0462380800
2569,18501,"STADION WROCŁAW (Królewiecka)",51.1450275900,16.9479168600
3391,50000065,"Św. Katarzyna - szkoła",51.0254970000,17.1147820000
286,11743,"Ojca Beyzyma",51.0906467900,16.9922862000
183,12128,"Kołobrzeska",51.1210305500,16.9454134200
1910,18375,"Hartmana",51.1599490000,16.8771594500
2960,17510,"Skarżyńskiego",51.1092096100,16.9041677300
1958,12531,"PILCZYCE",51.1366514700,16.9480223600
3864,91606007,"Lutynia - Kolonia",51.1317530000,16.7560500000
202,12516,"Drzewieckiego",51.1215805200,16.9679089200
3931,18528,"Królewiecka (Park)",51.1482167800,16.9307749700
3369,50000040,"Iwiny - Kolejowa",51.0397000000,17.0740870000
3838,38104,"Grabowa",51.1398592800,16.9212092800
1312,120628,"Nowowiejska",51.1242394000,17.0449878900
1162,23112,"Łużycka",51.1362300800,17.0164017000
3330,50000018,"Siechnice - Staszica",51.0222210000,17.1606040000
1366,20629,"Mosty Warszawskie",51.1283805300,17.0546427100
3782,17119,"GIEŁDOWA (Centrum Hurtu)",51.0681134100,16.9695234600
642,23144,"Bałtycka",51.1366318700,17.0306168000
3517,120269,"DWORZEC GŁÓWNY",51.0996183100,17.0350583000
854,121008,"Gajowa",51.0919384600,17.0400436800
992,18346,"ŻAR",51.1497779800,16.8342710000
3414,11354,"Sudecka",51.0856654900,17.0166093600
1160,23302,"OSOBOWICE",51.1374777700,16.9936599100
1132,18334,"Las Ratyński",51.1232748200,16.8330233700
3665,31912001,"Łosice",51.2166636800,17.2049164500
2281,31917001,"Wilczyce",51.1330964600,17.1429171600
1646,21018,"Transbud",51.0837238900,17.0596581100
3115,21143,"Kamienna (Widna)",51.0862699700,17.0448769600
3888,18342,"Leśnica - Hermes",51.1458711500,16.8663056000
2544,12002,"Wrocławski Park Przemysłowy",51.1125054600,16.9934106100
3614,31913009,"Januszkowice - Wrocławska",51.2212137800,17.2388790400
3429,71951007,"Ślęza (ul. Pszenna - autostrada)",51.0429274300,16.9911233700
1362,16405,"Braterska",51.0676757400,16.9992089800
469,25310,"BROCHÓW",51.0589050000,17.0872960000
155,18323,"Gromadzka",51.1292307400,16.8548804800
114,12708,"Górnicza",51.1399021200,16.9594143300
3895,23733,"pl. Daniłowskiego",51.1383443100,17.0599882600
3526,120268,"DWORZEC GŁÓWNY",51.0996885800,17.0354868800
42,12103,"Dolnośląska Szkoła Wyższa",51.1136238500,16.9905764300
1170,23531,"Polanowicka",51.1700628700,17.0236699200
3611,31917014,"Kiełczów - cmentarz",51.1371178900,17.1772372300
1522,20206,"Na Niskich Łąkach",51.0962539600,17.0565709000
2642,18112,"Stadion Wrocław (Lotnicza)",51.1381089700,16.9426408300
1026,11322,"EPI",51.0981847300,17.0304730000
1997,111404,"Stalowa",51.0995606500,17.0006904600
1878,26113,"Tunelowa",51.0648777300,17.0654839500
601,24123,"Tczewska",51.1306065700,17.1119496900
1778,18361,"Krępicka",51.1513831800,16.8561835800
801,18512,"Jędrzejowska",51.1581384600,16.9175631500
890,24525,"Piramowicza",51.1030638600,17.0957370100
1015,18306,"Krępicka - szkoła",51.1500133400,16.8604490700
2029,120621,"pl. Bema",51.1175088800,17.0421978100
353,26307,"Gałczyńskiego",51.0550544200,17.0322110100
463,26102,"Buforowa",51.0704560800,17.0539575000
3320,50000045,"Łukaszowice",51.0107157000,17.0865215800
2738,23316,"Góra Kapliczna",51.1515126800,16.9929223200
3536,20725,"Zakładowa",51.1298330000,17.0391070000
3430,71951008,"Ślęza (ul. Pszenna - autostrada)",51.0428572700,16.9912595800
821,120665,"Słowiańska",51.1240128000,17.0427107000
3872,18546,"Królewiecka (Staw)",51.1544670000,16.9240520000
667,23150,"Paprotna",51.1477521500,17.0205392900
3268,23003,"Serbska (C.K. Agora)",51.1337895900,17.0194298200
1511,12203,"Małopanewska",51.1238940800,16.9874667700
3707,31453016,"Łozina - Wrocławska (na wys. nr 18)",51.2304029100,17.1727172300
113,18536,"Dworska",51.1436063900,16.9534481200
3452,11702,"Bzowa (Centrum Zajezdnia)",51.0976554000,16.9930907400
4049,17742,"Jerzmanowo (Cmentarz)",51.1259270000,16.8851180000
251,12122,"Nowy Dwór",51.1125872800,16.9599295600
1424,18001,"Glinianki",51.1380635300,16.9349894600
623,23703,"Kasprowicza",51.1374410800,17.0529068200
1385,10651,"Dmowskiego",51.1164495600,17.0247823500
125,12711,"Kolista",51.1327370900,16.9738810400
2958,10221,"Wzgórze Partyzantów",51.1042801600,17.0374018900
3559,11406,"pl. Srebrny",51.0984416500,16.9961696100
2484,10527,"LITOMSKA (ZUS)",51.1199086500,17.0101373900
48,227905,"SZYMANÓW",51.1941474000,17.0188466100
1984,120825,"Bujwida",51.1133642500,17.0667942100
3235,17300,"Muchobór Wielki (Roślinna)",51.1017604300,16.9439777200
3649,31371014,"Pasikurowice - skrzy. Malinowa",51.2097949200,17.1039922700
3865,91606008,"Lutynia - Kolonia",51.1317310000,16.7562730000
1530,21016,"Nyska",51.0830575600,17.0544017000
404,17101,"Solskiego",51.0812013100,16.9677037700
208,12316,"Wejherowska",51.1294515200,16.9866403700
3839,23539,"Lawendowa",51.1697220000,17.0004870000
1750,20855,"PL. GRUNWALDZKI",51.1111411000,17.0611932900
2114,31922007,"Kiełczówek",51.1194904100,17.1792128500
1883,25318,"Park Brochowski",51.0632764400,17.0748639300
284,11723,"Aleja Pracy",51.0918696000,16.9853733400
1967,17102,"Solskiego",51.0817903600,16.9686697900
2907,20607,"DWORZEC NADODRZE",51.1243901500,17.0333860400
3231,18149,"Kamiennogórska (Ośrodek dla niewidomych)",51.1425993300,16.8997371700
3245,29546,"Odolanowska",51.1662150000,17.1283820000
191,18109,"Wschowska",51.1451622300,16.8802209200
911,18331,"Ratyń - skrzyżowanie",51.1299792900,16.8466710400
1515,11453,"Mielecka",51.0896265800,17.0004196200
206,12513,"Orlińskiego",51.1221205200,16.9719204400
381,16702,"Kościelna",51.0638818600,16.9838994700
3566,17133,"Kadłubka",51.0764765300,16.9686605800
3658,31453023,"Domaszczyn -Trzebnicka",51.1960955600,17.1518290400
860,121010,"Prudnicka",51.0900427600,17.0447006800
3875,21109,"Borowska (Szpital)",51.0747253300,17.0325481300
1409,11606,"FAT",51.0947030200,16.9809392200
868,111402,"Pereca",51.1011171600,17.0080775100
1477,24008,"Kętrzyńska",51.1309653600,17.0740608700
82,18130,"Park Stabłowicki",51.1601889800,16.8937057100
2286,29114,"Dobroszycka",51.1513435300,17.1266710100
1672,18007,"Złotnicka",51.1438728600,16.8897977600
209,12317,"Wejherowska",51.1291718500,16.9853284800
2478,12736,"KOZANÓW",51.1374778700,16.9687557600
3567,17135,"Stanki",51.0763258500,16.9720669200
184,12127,"Kołobrzeska",51.1211968500,16.9449610800
1365,20630,"Mosty Warszawskie",51.1284732000,17.0545791400
1327,12320,"Hala Orbita",51.1322068200,16.9897592300
1139,18537,"Dworska",51.1437776400,16.9529776600
1331,16713,"Marcepanowa",51.0617578900,16.9758113000
3532,121004,"Joannitów",51.0940895400,17.0338478400
1275,24520,"Monte Cassino",51.1056956200,17.1050499900
1040,11720,"GRABISZYŃSKA (Cmentarz)",51.0896217000,16.9766622100
2549,21022,"TARNOGAJ",51.0785056000,17.0639519700
3410,17131,"Jordanowska",51.0787080000,16.9577690000
3804,17708,"Jerzmanowska nr 9",51.1261206400,16.9089938100
1248,24101,"KROMERA",51.1322240600,17.0651489300
3883,82024004,"ZABRODZIE",51.0569300000,16.9465210000
3801,17709,"Jerzmanowska nr 17",51.1272973700,16.9024677100
105,18508,"Północna",51.1570317500,16.9344602800
898,11728,"Fiołkowa",51.0930791900,16.9782840400
3935,11555,"RACŁAWICKA",51.0776580000,16.9834980000
1779,18363,"Krępicka",51.1505124500,16.8552577400
158,91607004,"Gałów - ferma",51.1182359000,16.8258072000
588,24715,"Strumykowa",51.1015646100,17.1571887000
1446,11603,"Hutmen",51.0961267200,16.9859878700
167,17715,"Adamczewskich",51.1209533900,16.8695615700
2269,11334,"Komandorska",51.0923578800,17.0233312900
3522,20268,"DWORZEC GŁÓWNY",51.0996927600,17.0355198300
1634,10413,"Śrubowa",51.1123145200,17.0010884800
3571,11310,"KRZYKI",51.0748836600,17.0065686100
2369,21027,"Morwowa",51.0768883600,17.0506457900
1213,24710,"Niedziałkowskiego",51.1095289200,17.1384195100
3246,29544,"Odrodzenia Polski",51.1640729300,17.1258213200
459,21144,"Kamienna",51.0859398000,17.0465032900
998,23130,"Kamieńskiego",51.1394310400,17.0311768000
481,21106,"Śliczna",51.0857054600,17.0353824900
3142,10121,"GALERIA DOMINIKAŃSKA",51.1089157400,17.0399095500
1746,20820,"PL. GRUNWALDZKI",51.1116227600,17.0599651200
3824,17111,"Awicenny",51.0871151300,16.9528231600
1086,31918002,"Długołęka - Kościół",51.1730691900,17.1924734100
3404,716103,"Biskupice Podgórne LG Innotek",51.0181660000,16.8888120000
3286,50000001,"Radwanice - Skrajna",51.0611900000,17.1012110000
4036,17744,"Osiniecka",51.1218630000,16.8914370000
3600,31341010,"Szczodre - pętla",51.1944852600,17.1827382100
2292,12132,"ROD Tysiąclecia",51.1113787900,16.9525599400
3850,51933004,"Durok-skrzy.",51.0142780000,17.1976760000
1577,12407,"Metalowców",51.1327735200,16.9574495900
3735,31371010,"Pasikurowice - Wrocławska (na wys. nr 14)",51.2150184100,17.1106155900
1533,10053,"Opera",51.1056358700,17.0318566200
433,25142,"Księska",51.0767904900,17.0892144900
3638,31921007,"Raków IV",51.1559148700,17.2749699300
849,110250,"Renoma",51.1042864100,17.0300933000
331,11358,"Skierniewicka",51.0781529100,17.0149210000
3247,29543,"Odrodzenia Polski",51.1642934000,17.1262011100
3809,26309,"Grota-Roweckiego",51.0506420100,17.0304024400
3460,24146,"Kromera (Czajkowskiego)",51.1355758100,17.0690750500
3933,11549,"RACŁAWICKA",51.0773950000,16.9839380000
3923,46111,"Konduktorska",51.0655650000,17.0550560000
150,18320,"Szkolna",51.1316081900,16.8481725900
1774,23023,"Kamieńskiego",51.1395550400,17.0317598400
177,17705,"Strachowicka",51.1235147500,16.9190698800
1000,11312,"KRZYKI",51.0743848600,17.0066998900
4037,17743,"Osiniecka",51.1217030000,16.8910350000
3196,29100,"MULICKA",51.1453306200,17.1166607300
3549,24729,"Gospodarska",51.1185260000,17.1235890000
876,723971,"Bielany - MAKRO",51.0466739600,16.9703692700
531,25510,"Opatowicka nr 85",51.0952330000,17.1224230000
2262,12158,"ROD Oświata",51.1019507300,16.9728020700
3266,123004,"Serbska (C.K. Agora)",51.1337097500,17.0201518000
3007,18015,"Kosmonautów (Szpital)",51.1418478700,16.9058947000
1210,24526,"Piramowicza",51.1029892700,17.0969646500
3348,50000039,"Biestrzyków - skrzyżowanie",51.0360574600,17.0440367800
51,29535,"Pawłowice",51.1655438200,17.1063972500
204,12511,"Na Ostatnim Groszu",51.1231804900,16.9750780800
466,25304,"Topolowa",51.0694651300,17.0804192500
3685,31920018,"Brzezia Łąka - Wrocławska",51.1233520500,17.2456382500
3794,26110,"Kajdasza",51.0538040000,17.0580200000
1586,20681,"PL. STASZICA",51.1227854600,17.0308200600
3420,29130,"Psie Pole (Rondo Lotników Polskich)",51.1471111900,17.1166803100
1813,10521,"Szczepin",51.1176376900,17.0064837400
1360,24014,"Bociania",51.1298715700,17.0978813500
1636,10001,"Świdnicka",51.1072813000,17.0328509900
1255,29109,"Bierutowska",51.1537872200,17.1363615100
334,16521,"Wyścigowa",51.0697063400,17.0120504400
274,17307,"Krzemieniecka",51.0963781000,16.9569500200
587,24716,"Strumykowa",51.1014093100,17.1577110900
1163,123001,"most Osobowicki",51.1331533800,17.0264207700
767,29306,"Mroźna",51.1348601600,17.1384322200
3682,32913102,"Domaszczyn Wrocławska sklep",51.1901070200,17.1707040200
3421,29129,"Psie Pole (Rondo Lotników Polskich)",51.1478260900,17.1148752300
2151,31922001,"Kiełczów - Rzeczna",51.1298594700,17.1747517700
3427,71951012,"Ślęza (ul. Dębowa)",51.0385900000,16.9862840000
3366,51933007,"Kotowice - Główna",51.0250540000,17.2316470000
949,26322,"Oboźna",51.0582983800,17.0325979100
873,120803,"Górnickiego",51.1162501300,17.0550195200
708,24107,"C.H. Korona",51.1417828200,17.0932825800
4018,31920027,"Brzezia Łąka-skrzy.Orzechowa",51.1235580000,17.2554250000
519,20326,"Na Niskich Łąkach",51.0972808300,17.0554890900
134,18102,"Glinianki",51.1381194700,16.9362835200
3020,25122,"Sosnowiecka",51.0709008200,17.0912699400
3303,51938001,"Smardzów - Reja",51.0279370000,17.0841620000
713,29539,"Kopańskiego",51.1549566500,17.1193374700
1161,123006,"OSOBOWICKA (Cmentarz II)",51.1345367600,17.0109551100
2291,21179,"ROD Bajki",51.0830188600,17.0360095600
738,29111,"BIERUTOWSKA (Wiadukt)",51.1584667300,17.1476851900
2264,26346,"ROD Storczyk",51.0476633700,17.0160435600
2822,10026,"pl. Nowy Targ",51.1104065200,17.0390255800
94,18710,"STABŁOWICKA (Ośrodek zdrowia)",51.1668332600,16.8985987100
3662,31341004,"Łosice - plac zabaw",51.2166976000,17.2038977500
612,24106,"Brücknera",51.1395148500,17.0810791400
2254,31920024,"Oleśniczka",51.1466121900,17.2806309000
3894,21173,"Bardzka",51.0822302500,17.0492639300
1460,21011,"Kamienna",51.0849131600,17.0484029500
65,18343,"Mokrzańska",51.1475429900,16.8531224500
3763,11326,"Zaolziańska",51.0977656800,17.0256877100
3385,110241,"Narodowe Forum Muzyki",51.1078990000,17.0262940000
3070,23313,"Witkowska",51.1476971300,16.9885244600
3686,31922003,"Kiełczów - Sielska Zagroda",51.1237347200,17.1753222500
891,12506,"PILCZYCE",51.1363248900,16.9498929700
1482,20817,"Kliniki",51.1095058500,17.0652826500
2954,110221,"Wzgórze Partyzantów",51.1049242300,17.0379534500
1204,31912003,"Dąbrowica",51.2174882700,17.2168247400
2528,21132,"GAJ",51.0771565900,17.0397758700
3604,30368004,"Długołęka - Kasztanowa",51.1772434400,17.1874231200
1594,10601,"Pomorska",51.1172674600,17.0318991700
671,23503,"Ostowa",51.1621963400,17.0033669300
2263,26345,"ROD Storczyk",51.0477536300,17.0159136000
143,18311,"Średzka",51.1452856500,16.8663489400
874,20924,"Reja",51.1124187900,17.0570093800
341,16510,"Partynice",51.0615495600,16.9976446200
1906,17120,"POCZTA POLSKA",51.0870806000,16.9489530200
387,16504,"Os. Przyjaźni",51.0695733800,16.9973643100
654,10706,"Kleczkowska",51.1267139500,17.0276264000
3833,23560,"KMINKOWA",51.1786350000,17.0027290000
66,90336010,"Wilkszyn - Polna",51.1890493000,16.8661957000
3692,30368010,"Byków - Jaśminowa",51.1923120900,17.2474286600
315,11542,"Zaporoska",51.0978994000,17.0146602800
596,24725,"Ceglana",51.1198273100,17.1219478600
1560,20614,"Paulińska",51.1209713200,17.0350055400
3076,18738,"Wojanowska",51.1538710000,16.8934100000
1046,25145,"Blizanowicka",51.0758844300,17.0927620700
1014,723965,"Bielany - PKP",51.0382056000,16.9753721500
83,18127,"Stabłowice",51.1559262300,16.8911354900
233,10507,"ZACHODNIA (Stacja kolejowa)",51.1160249300,17.0012958900
1654,20291,"Urząd Wojewódzki",51.1086103000,17.0499577900
3878,23551,"Milicka",51.1527670000,17.0436330000
3478,91607008,"GAŁÓW (pętla)",51.1118900000,16.8106290000
3790,18387,"LEŚNICA",51.1447151500,16.8712568500
240,10502,"PL. JANA PAWŁA II",51.1117500700,17.0204681500
188,18145,"Złotniki",51.1395055500,16.8916672700
1375,11609,"GRABISZYŃSKA (Cmentarz)",51.0903793300,16.9767377500
987,24127,"Kowalska",51.1290113100,17.1136299400
1717,31913007,"Januszkowice - Wierzbowa",51.2240190400,17.2384600200
760,29316,"Żmudzka",51.1440083000,17.1409808300
267,17502,"Park Tysiąclecia",51.1087356100,16.9432753000
3283,50094987,"Siechnice - CPN n ż",51.0390590000,17.1312140000
3810,24314,"8 Maja",51.1135437000,17.0910980000
1624,20684,"Słowiańska",51.1240703500,17.0428228900
3344,50000044,"Iwiny - Polna",51.0470300000,17.0820530000
307,11522,"Krucza",51.0934228300,17.0083676000
1461,21012,"Kamienna",51.0863024900,17.0468284400
255,12109,"Nowy Dwór",51.1124566500,16.9607992200
3387,17719,"Jarnołtowska (Krzeptowska)",51.1202956100,16.8558288700
44,23541,"POŚWIĘCKA (Ośrodek zdrowia)",51.1564994400,17.0320980700
812,11729,"OPORÓW",51.0839290000,16.9709156700
3710,31453014,"Łozina - Milicka/poczta",51.2333505600,17.1776437000
363,723973,"Bielany - Kościół",51.0400724800,16.9690615300
2722,17301,"Tyrmanda",51.1031001700,16.9455441500
580,24724,"Miłoszycka",51.1162510000,17.1276090000
827,120670,"Wyszyńskiego",51.1219167500,17.0530296500
1809,12509,"Rękodzielnicza",51.1370464900,16.9578851800
3901,11352,"Hallera",51.0867284400,17.0114723100
193,12501,"Park Zachodni",51.1298533300,16.9709380000
2943,12143,"Nowy Dwór (Stacja kolejowa)",51.1198707700,16.9529726300
3723,31453008,"Kępa - skrzy.",51.2412206500,17.1956563800
709,29101,"Zielna",51.1451135500,17.1072601000
1478,10606,"Kleczkowska",51.1272838100,17.0275841500
1523,20624,"Na Szańcach",51.1194001600,17.0420180500
249,12105,"Wyższa Szkoła Bankowa",51.1142409800,16.9780381500
1747,20823,"PL. GRUNWALDZKI",51.1116106300,17.0604342000
3370,50000064,"BLIZANOWICE",51.0701100000,17.1572330000
1260,16523,"Przyjaźni",51.0697348700,17.0040088200
2692,723963,"Bielany - Boczna",51.0373768200,16.9681605600
1679,10412,"Dolmed",51.1143586600,17.0026600700
1353,12406,"Bajana",51.1306069200,16.9672487900
1802,12100,"Strzegomska 56",51.1142978400,16.9846409700
226,10516,"Poznańska",51.1211119100,17.0119443000
3468,92052014,"Brzezina - Chrobrego",51.2014550000,16.8349673000
638,23121,"Broniewskiego",51.1363434500,17.0366867900
2538,25320,"Ziemniaczana",51.0530275200,17.0935232100
1508,10650,"mosty Mieszczańskie",51.1176037300,17.0248939600
1166,23147,"Bałtycka",51.1375866000,17.0306094400
1143,12301,"Niedźwiedzia",51.1216977200,16.9933435700
1559,12404,"Park Zachodni",51.1294052000,16.9714251000
3664,31912002,"Łosice",51.2167411700,17.2051800100
2303,29529,"ROD Źródło Zdrowia",51.1511971500,17.1077045100
3425,71951005,"Ślęza (ul. Przystankowa)",51.0374831000,16.9859783800
1652,20282,"Urząd Wojewódzki",51.1096733000,17.0477552500
2771,29121,"Psie Pole (Gorlicka)",51.1458387600,17.1137168100
3312,50000010,"Siechnice - Szkolna",51.0342730000,17.1466210000
595,24726,"Ceglana",51.1197409100,17.1218161200
3663,31341005,"Łosice - plac zabaw",51.2168935700,17.2037054100
1664,18010,"Wschowska",51.1447810300,16.8817250400
3343,50000014,"Siechnice - Elektrociepłownia",51.0379640000,17.1446530000
530,25509,"Opatowicka nr 85",51.0951554000,17.1230275700
1359,24013,"Bociania",51.1297322500,17.0980540600
2734,11377,"Pułtuska",51.0747735700,17.0161786500
610,24305,"Zacisze",51.1241929000,17.0782392700
3800,17713,"Jasińskiej",51.1209893100,16.8766318900
3724,31341016,"Łozina Cmentarz",51.2284570600,17.1805194000
668,23149,"Paprotna",51.1481809800,17.0206268600
3697,31919005,"Raków - osiedle",51.1668255600,17.2703164200
2035,26301,"Przystankowa",51.0700097100,17.0321837600
658,10716,"Dubois",51.1170118900,17.0332606000
2816,10366,"Arkady (Capitol)",51.1020390600,17.0298365300
161,17718,"Kośnego",51.1204467700,16.8631401000
889,24524,"Chełmońskiego",51.1037603000,17.0908703600
775,31917011,"Kiełczów - osiedle",51.1324518000,17.1717445100
608,24304,"Śniadeckich",51.1205704600,17.0773104000
4033,17740,"Kaczorowskiego",51.1269520000,16.8813360000
355,26343,"Kutrzeby",51.0518332200,17.0188292700
1483,20818,"Kliniki",51.1094524000,17.0661215100
3631,31341014,"Długołęka - Parkowa/skrzy.",51.1788996000,17.1904349000
3698,31919006,"Raków - osiedle",51.1664480100,17.2686538700
128,12701,"Kolista",51.1332096600,16.9722292900
3227,18006,"Kamiennogórska (Ośrodek dla niewidomych)",51.1424933800,16.9000487100
2548,24214,"SĘPOLNO",51.1142851200,17.1038941200
385,16501,"Zimowa",51.0720232900,17.0008125600
287,11746,"Ślusarska",51.0841596000,16.9903802000
1377,23008,"OSOBOWICKA (Cmentarz)",51.1350718600,17.0057431500
4038,10384,"Tęczowa",51.1052580200,17.0139121700
2638,20330,"Komuny Paryskiej",51.1023005900,17.0466553900
3722,31371005,"Siedlec - stacja",51.2345308900,17.1214700400
304,10386,"Grabiszyńska",51.1012382500,17.0137498600
1386,10652,"Dmowskiego",51.1162438800,17.0247238200
3781,87119,"GIEŁDOWA (Centrum Hurtu)",51.0682000000,16.9693370000
1265,17118,"Marchewkowa",51.0666983500,16.9741725100
869,110256,"pl. Orląt Lwowskich",51.1074836000,17.0224198700
1002,11316,"KRZYKI",51.0745604600,17.0067135000
1719,11731,"GRABISZYŃSKA (Cmentarz II)",51.0881142500,16.9756586700
342,26320,"Partynice",51.0608569900,16.9985086200
3353,50000051,"Sulimów",51.0013220000,17.1262570000
859,121009,"Prudnicka",51.0891998500,17.0451315000
2360,12605,"Modra",51.1368106600,16.9666722700
1740,120820,"PL. GRUNWALDZKI",51.1116205100,17.0600864200
3228,18005,"Kamiennogórska (Ośrodek dla niewidomych)",51.1426287900,16.8997251000
3015,23518,"Rzemieślnicza",51.1708793000,17.0037794600
3709,31453015,"Łozina - skrzy.",51.2324397600,17.1752915200
278,11714,"Ostrowskiego",51.0951126700,16.9732223600
3406,716101,"Biskupice Podgórne LG Display",51.0176873300,16.8773746000
3024,31920013,"Pietrzykowice",51.1233340200,17.2323170500
563,24518,"Bacciarellego",51.1054386700,17.1116518200
1822,723956,"Wysoka-Chabrowa",51.0479177100,17.0039897400
1039,21127,"Krynicka",51.0794074100,17.0503490200
2981,23166,"KAMIEŃSKIEGO (pętla)",51.1507006200,17.0432173400
1433,20808,"Grunwaldzka",51.1150209000,17.0677333000
1467,24206,"Karłowicza",51.1170463300,17.0864598400
520,20315,"Na Niskich Łąkach",51.0966840400,17.0577493300
299,11722,"Inżynierska",51.0945401200,16.9919639100
3350,50000036,"Żerniki Wr. - Orla",51.0361969900,17.0587710300
948,11553,"Mielecka",51.0897803900,17.0001582400
3694,32696101,"Wilczyce Wilczycka Stary Młyn",51.1226440600,17.1552602100
1274,24533,"Spółdzielcza",51.1026601700,17.1024250500
1138,12504,"Metalowców",51.1324312000,16.9577751900
3386,17722,"Jarnołtowska (Samotworska)",51.1200838600,16.8502475600
29,21101,"Dyrekcyjna",51.0943013600,17.0322290900
3879,12140,"NOWY DWÓR (pętla)",51.1194313300,16.9520998800
663,23304,"Jarocińska",51.1419203400,16.9906040500
1469,25010,"Karwińska",51.0820457700,17.0769832000
3419,29115,"Psie Pole (Rondo Lotników Polskich)",51.1481929100,17.1174114300
879,9,"Zajezdnia Obornicka",51.1487374400,17.0210685900
2304,29502,"Zakrzowska",51.1516515900,17.1156409200
3756,10543,"Robotnicza",51.1095676600,17.0082892300
3013,20904,"Świętokrzyska",51.1172973300,17.0441863200
1383,12402,"DH Astra",51.1279632400,16.9762310900
2307,26116,"ROD Mieczyk",51.0641251200,17.0692762000
3215,23019,"Wołowska",51.1473691300,17.0302713100
3814,11545,"Racławicka (szkoła)",51.0846813500,17.0069504700
1456,18011,"Jeleniogórska",51.1453345700,16.8780290600
1507,23001,"most Osobowicki",51.1331639300,17.0263515200
1565,10250,"Renoma",51.1042904300,17.0299979500
423,25116,"Zagłębiowska",51.0740204200,17.0880132600
3102,21112,"PETRUSEWICZA",51.0923060000,17.0307410000
2174,23156,"Obornicka (Obwodnica)",51.1574756400,17.0094034200
2737,23315,"Góra Kapliczna",51.1512761800,16.9929207400
2176,23542,"Poświęcka",51.1560296400,17.0337226900
1422,24012,"Gęsia",51.1318919400,17.0877611700
3927,18503,"Rędzińska (Cmentarz)",51.1491117300,16.9453108400
1246,29518,"Białych Goździków",51.1568032100,17.1009474200
281,11712,"FAT",51.0941263200,16.9783528000
3321,50000046,"Łukaszowice",51.0111138000,17.0867935800
3300,50000004,"SIECHNICE - OSIEDLE",51.0262100000,17.1546500000
1247,29519,"Białych Goździków",51.1569269900,17.0993175900
3309,50000056,"STARODWORSKA (ZUW)",51.0712800000,17.1173540000
3264,20304,"Urząd Wojewódzki",51.1099125400,17.0476905200
753,29131,"KIEŁCZOWSKA (LZN)",51.1465803400,17.1247318700
3537,20726,"Zakładowa",51.1299880000,17.0387430000
3054,17316,"Trawowa",51.0972703700,16.9493911900
2373,21103,"Borowska",51.0893095800,17.0338960000
441,21156,"Gazowa",51.0782827300,17.0688517100
1876,26327,"Ożynowa",51.0643969800,17.0094561800
1644,24408,"Tramwajowa",51.1044668200,17.0846699600
1496,11215,"KRZYKI",51.0747356600,17.0070886800
2251,18305,"Krępicka - szkoła",51.1501949100,16.8600396000
2506,29120,"PSIE POLE (Stacja kolejowa)",51.1496402100,17.1196140500
3104,21126,"PETRUSEWICZA",51.0920840000,17.0318030000
659,23307,"Las Osobowicki",51.1478158900,16.9842128500
3727,31920020,"Brzezia Łąka - skrzy. Główna",51.1231959600,17.2632370800
2776,17516,"Graniczna (Strachowicka)",51.1108012000,16.8985760300
527,25502,"Rakowiecka",51.0972313700,17.0682385200
27,25113,"KSIĘŻE MAŁE",51.0769998000,17.0844074000
3572,20345,"DWORCOWA",51.1002777300,17.0392014900
26,25114,"KSIĘŻE MAŁE",51.0778430800,17.0836356900
1356,23009,"Bałtycka",51.1370151400,17.0298151300
2952,18352,"Eluarda",51.1465010000,16.8672910000
3557,111405,"pl. Srebrny",51.0984093200,16.9954765200
3670,31453020,"Bukowina - skrzy.",51.2045928000,17.1536755700
3777,23533,"Kominiarska (plac sportowy)",51.1755878100,17.0124025000
3540,23564,"Cynamonowa",51.1759580000,16.9977880000
1701,24728,"Volvo - brama II",51.1185418700,17.1105157600
3399,51933005,"Kotowice II-Spacerowa/Leśna",51.0257350000,17.2231330000
52,29537,"Starodębowa",51.1673054900,17.1059007000
1212,24720,"Kmieca",51.1052327000,17.1457403400
3906,121014,"Bardzka",51.0834758500,17.0492901000
729,29522,"Królewska",51.1555831300,17.1290185700
277,17310,"Końcowa",51.0959813500,16.9621510700
347,26341,"Ołtaszyn",51.0568003800,17.0222771800
336,11365,"PARK POŁUDNIOWY",51.0736373900,17.0124948200
3285,50094982,"Radwanice - Skrajna",51.0611900000,17.1013960000
1335,31917009,"Wilczyce - Sosnowa",51.1316349100,17.1681809800
562,24506,"Spółdzielcza",51.1019015100,17.1026888100
1610,20814,"Reja",51.1124185400,17.0569279300
3704,31371003,"Godzieszowa (na wys. nr 8)",51.2384971300,17.1281536700
711,29103,"Psie Pole",51.1456250000,17.1110370000
230,10513,"Szczepin",51.1177204600,17.0075345100
3398,51933006,"Kotowice II-Spacerowa/Leśna",51.0254380000,17.2226880000
1298,31920022,"Kątna",51.1328295100,17.2838817700
3280,50000012,"Siechnice - Szkolna",51.0334600000,17.1471350000
1569,20806,"Piastowska",51.1158164800,17.0614917600
1486,20261,"Komuny Paryskiej",51.1017259800,17.0461160400
1466,24205,"Karłowicza",51.1169145100,17.0860589800
2894,12610,"KOZANÓW (Dokerska)",51.1411263700,16.9640126500
3616,30017701,"Długołęka - SELGROS pętla",51.1831096700,17.1985902900
283,11724,"Aleja Pracy",51.0922586200,16.9864164100
568,24708,"Swojczyce",51.1147904000,17.1281076700
2950,24705,"Magellana",51.1134611700,17.1222761100
3476,90336000,"Wilkszyn (pętla)",51.1917357000,16.8628661000
451,21133,"Świeradowska",51.0768454300,17.0479991100
3565,17134,"Kadłubka",51.0762234400,16.9688686400
1266,12537,"Szybowcowa",51.1293877300,16.9652179400
1455,18012,"Jeleniogórska",51.1451916100,16.8784282200
3806,10542,"DW. ŚWIEBODZKI",51.1085111000,17.0188265300
2279,29107,"Dobroszycka",51.1514553900,17.1282492000
977,20916,"PL. GRUNWALDZKI",51.1124589100,17.0608282000
2841,90336002,"Pisarzowice - Kolejowa",51.2138342000,16.8473652000
1178,20903,"Ogród Botaniczny",51.1171567400,17.0514722200
16,12526,"Metalowców",51.1330889400,16.9592179100
3925,18505,"Maślice Małe (Brodnicka)",51.1529305700,16.9401113700
1414,11451,"Gajowicka",51.0879790300,17.0067096800
1176,20905,"pl. Bema",51.1169782800,17.0433691300
3290,50094043,"Siechnice - Wiadukt",51.0357600000,17.1364420000
1082,31453010,"Bierzyce",51.2360076000,17.1840852200
735,29105,"PSIE POLE (Stacja kolejowa)",51.1496815200,17.1200050900
633,23721,"Redycka",51.1491673300,17.0752146900
1412,11608,"Fiołkowa",51.0922952900,16.9777138000
892,29927,"Żmudzka",51.1453473100,17.1426858900
1601,20851,"Prusa",51.1198444600,17.0563684700
327,11306,"Orla",51.0801599200,17.0084930900
1097,30440003,"Borowa - szkoła",51.1891701200,17.2791587300
2746,24717,"Wojnów",51.0973272500,17.1634351900
3218,12733,"KOZANÓW (Dokerska)",51.1415645500,16.9635930000
148,18318,"Miodowa",51.1351482500,16.8487416100
3808,26317,"rondo Św. Ojca Pio",51.0596891500,17.0056594100
3514,21121,"DWORZEC AUTOBUSOWY",51.0972692700,17.0365797600
3745,31913003,"Jaksonowice (na wys. bud 27)",51.2444593500,17.2416797100
1345,11658,"Aleja Pracy",51.0913845800,16.9867018500
3668,31910003,"Bukowina - skrzy.",51.2048768500,17.1532228500
3239,24120,"KOWALE",51.1289588800,17.1016547400
43,20923,"PL. GRUNWALDZKI",51.1121887500,17.0633575100
3341,50000020,"SIECHNICE - TIM",51.0280580000,17.1637440000
197,12901,"Hermanowska",51.1222790000,16.9558990000
3890,11304,"Hallera",51.0868153700,17.0129105300
689,23523,"Żmigrodzka (Obwodnica)",51.1549670100,17.0291782400
3678,31918003,"Długołęka - Nowy Urząd",51.1736239300,17.2024367800
1893,24141,"KROMERA",51.1320221100,17.0656813700
786,12520,"KUŹNIKI (Stacja kolejowa)",51.1262355100,16.9548581600
3813,26324,"rondo Św. Ojca Pio",51.0589698600,17.0070559700
1911,18376,"Hartmana",51.1603831800,16.8774650100
1430,10245,"Grabiszyńska",51.1024208700,17.0136450500
1083,31341003,"Budziwojowice",51.2230897200,17.1879813700
828,120669,"Wyszyńskiego",51.1223244700,17.0519629100
2297,25004,"KRAKOWSKA (Centrum handlowe)",51.0899701900,17.0648925200
690,23530,"Widawa",51.1753073700,17.0227755900
1808,20620,"DWORZEC NADODRZE",51.1243923100,17.0340215600
1509,10649,"mosty Mieszczańskie",51.1175254100,17.0255051600
3454,11524,"Krucza (Mielecka)",51.0932560600,17.0024924700
55,29507,"ZAKRZÓW",51.1624766000,17.1251204200
2721,10505,"pl. Strzegomski (Muzeum Współczesne)",51.1132386800,17.0078862500
2270,125004,"KRAKOWSKA (Centrum handlowe)",51.0895698100,17.0657194900
665,23301,"OSOBOWICE",51.1376517300,16.9936403900
2540,21030,"GAJ",51.0771603500,17.0399816000
3488,11548,"Rymarska",51.0794780000,16.9923810000
2032,20658,"pl. Bema",51.1173949200,17.0409097100
3637,31920025,"Oleśniczka - skrzy.",51.1494058600,17.2826094300
2496,2,"Zajezdnia OŁBIN",51.1238394100,17.0410439100
3623,30440001,"Borowa - stacja kolejowa",51.1851082600,17.2799828100
1352,25006,"Armii Krajowej",51.0868913000,17.0693732600
2011,11367,"PARK POŁUDNIOWY",51.0724375500,17.0109098700
436,25111,"Karwińska",51.0812736800,17.0767333800
1510,12204,"Małopanewska",51.1236660200,16.9877389400
41,12104,"Dolnośląska Szkoła Wyższa",51.1124757900,16.9887106800
1448,11212,"Jastrzębia",51.0836803300,17.0102912500
1429,10246,"Grabiszyńska",51.1020988200,17.0124409500
875,120813,"Reja",51.1128218300,17.0554092900
1618,11035,"Sanocka",51.0932815900,17.0302326400
1629,24208,"Stadion Olimpijski",51.1170499000,17.0900227400
3331,50000030,"ZĘBICE - pętla",51.0048160000,17.1539430000
3932,18529,"Królewiecka (Park)",51.1489517100,16.9304072100
1044,12508,"Bajana",51.1304830400,16.9669594000
3314,50000003,"Siechnice",51.0308880000,17.1437010000
3570,17137,"Bukowskiego",51.0767220000,16.9778300000
1803,29118,"Bierutowska 75",51.1557581400,17.1399840800
3130,18525,"RĘDZIŃSKA",51.1573876700,16.9488763700
1041,11719,"GRABISZYŃSKA (Cmentarz)",51.0899037700,16.9766420300
1364,23013,"Broniewskiego",51.1353940300,17.0364704500
3729,32627602,"Brzezia Łąka Główna",51.1225425200,17.2649686200
3284,50094045,"Siechnice - CPN n ż",51.0401890000,17.1299100000
3480,90336006,"Pisarzowice - Odrzańska",51.2052389000,16.8525611000
2033,20657,"pl. Bema",51.1170872500,17.0432679700
3624,30440002,"Borowa - stacja kolejowa",51.1854448500,17.2801659700
2858,21171,"Orzechowa",51.0829566500,17.0418044700
3544,23561,"Waniliowa",51.1783470000,16.9999720000
750,31341006,"Szczodre - stawy",51.2044730900,17.2049794300
303,11514,"Grochowa",51.0971763900,17.0040351300
546,10111,"GALERIA DOMINIKAŃSKA",51.1074017100,17.0397532200
3403,716105,"Biskupice Podgórne Dong Seo/Dong Yang",51.0207780000,16.8962960000
1428,20804,"Górnickiego",51.1163345900,17.0558727900
3602,31341015,"Długołęka - Parkowa/skrzy.",51.1795100300,17.1903906100
675,23507,"Kominiarska",51.1691800900,16.9971980000
3487,11547,"Rymarska",51.0793500000,16.9916410000
2132,21025,"Krynicka",51.0796893700,17.0505028800
3866,91606010,"Radakowice - Świetlica",51.1291260000,16.7432390000
1229,25110,"Armii Krajowej",51.0878336400,17.0683065300
216,12312,"Popowice",51.1260430400,16.9966930700
3919,24703,"Kolumba",51.1141998300,17.1161854900
788,12718,"KOZANÓW",51.1375588400,16.9688781200
1628,24207,"Stadion Olimpijski",51.1168749500,17.0898967300
3695,32696503,"Wilczyce Wilczycka Clarena",51.1157897700,17.1712915800
2693,723964,"Bielany - Boczna",51.0378031800,16.9685451600
3265,23103,"Serbska (C.K. Agora)",51.1338962000,17.0196455000
214,12314,"Rysia",51.1279101700,16.9905910900
450,21134,"Świeradowska",51.0770466400,17.0462375200
2820,10269,"Arkady (Capitol)",51.1012407300,17.0297595300
3924,70344001,"Biskupice Podgórne LG Electronics",51.0243870000,16.8907070000
3216,23127,"Wołowska",51.1473036700,17.0298673900
756,29313,"Kiełczowska",51.1455231600,17.1370634200
3,18717,"Janówek",51.1980830000,16.9058919700
192,12502,"Park Zachodni",51.1287913400,16.9728665600
863,116408,"Sąsiedzka",51.0667271900,16.9944933100
499,10376,"Piłsudskiego",51.1020379200,17.0253017800
1313,120627,"Nowowiejska",51.1243586600,17.0450289200
2372,21141,"Borowska",51.0879368200,17.0360526600
1270,11317,"Sztabowa",51.0889321500,17.0146463700
1782,120615,"DWORZEC NADODRZE",51.1247465500,17.0348941700
1410,11605,"FAT",51.0947666500,16.9807672900
1129,18353,"Brzezińska",51.1496508400,16.8667172400
1136,17507,"Graniczna",51.1087178700,16.9092042900
3539,23565,"Tymiankowa",51.1757470000,16.9939100000
3677,32622402,"Długołęka Urząd Gminy",51.1761828000,17.2014097300
119,12704,"Modra",51.1362553500,16.9667695100
2934,31920007,"Kiełczów - Mleczna",51.1402019600,17.1780840400
2054,21029,"Świeradowska",51.0771518800,17.0462618300
3831,18739,"Wojanowska (Arachidowa)",51.1545100000,16.8979700000
3803,17707,"Jerzmanowska nr 9",51.1260826600,16.9098917700
4045,17530,"PORT LOTNICZY",51.1097200000,16.8814460000
1436,24401,"Hala Stulecia",51.1068946800,17.0737202600
1309,12529,"Na Ostatnim Groszu",51.1225531600,16.9748399600
2572,18014,"Stadion Wrocław (Lotnicza)",51.1371491800,16.9410612900
3893,21174,"Bardzka",51.0832163600,17.0480013100
978,10372,"pl. Orląt Lwowskich",51.1065124400,17.0217420800
2871,29551,"Pawłowicka",51.1696058800,17.1132082300
3037,31910001,"Pasikurowice - n/ż",51.2159089100,17.1173187300
3708,31341001,"Łozina - kościół",51.2322232400,17.1763553600
2555,21036,"Uniwersytet Ekonomiczny",51.0894017200,17.0291905300
3294,50395002,"Iwiny (Rondo)",51.0446060000,17.0608460000
3896,23713,"pl. Daniłowskiego",51.1385229200,17.0590853700
3001,120817,"Kliniki",51.1093224100,17.0660967800
3846,41124,"Gajowa (Dawida)",51.0934920000,17.0408150000
2246,31917007,"Wilczyce - Dębowa",51.1305210500,17.1633087300
3597,30098013,"Mirków - Jagiellońska",51.1675321700,17.1643626000
2747,425900,"WOJNÓW (pętla)",51.0947136200,17.1663919400
3811,23502,"Ćwiczebna",51.1584095200,17.0089604300
755,29311,"Poleska",51.1461778800,17.1304934700
1767,20634,"Nowowiejska",51.1239173100,17.0441528000
1435,11654,"GRABISZYNEK",51.0906694700,16.9889329100
2341,16717,"WAŁBRZYSKA",51.0632300400,16.9767633900
2113,31922005,"Kiełczówek - pętla",51.1189967300,17.1862747500
813,110015,"Uniwersytet",51.1137545900,17.0322885900
3635,31913011,"Dobroszów Oleśnicki",51.2161177000,17.2288022300
858,125008,"Park Wschodni",51.0851939600,17.0721274500
3741,32911806,"Domaszczyn Wrocławska Skrzyżowanie",51.1879752600,17.1531278000
2177,89535,"Pawłowice",51.1654326600,17.1065903300
1609,20813,"Reja",51.1127861300,17.0555646400
1585,20661,"PL. STASZICA",51.1225051400,17.0309683500
555,24516,"Monte Cassino",51.1065541500,17.1044502200
1184,23715,"Czajkowskiego",51.1391643300,17.0651072100
2535,25312,"Arabska",51.0514937000,17.0926688200
335,16522,"Wyścigowa",51.0706036600,17.0113651900
3518,21120,"DWORZEC AUTOBUSOWY",51.0971250000,17.0364860000
839,110024,"Hala Targowa",51.1126015000,17.0394897500
816,120613,"Paulińska",51.1202896900,17.0354275900
2999,18117,"Fieldorfa (Szpital)",51.1444320000,16.9070280000
2665,726952,"Wysoka",51.0460820200,17.0129740100
1480,21019,"Klimasa",51.0800034400,17.0625517600
257,12134,"Zemska",51.1153903100,16.9473666400
924,11374,"Wiśniowa",51.0844577800,17.0256820800
1372,24410,"Chełmońskiego",51.1038835600,17.0907119500
501,11332,"EPI",51.0976473400,17.0290176100
628,23731,"Berenta",51.1355112000,17.0575858200
3569,17138,"Bukowskiego",51.0765840000,16.9782130000
2106,31453026,"Pruszowice - las",51.1834086600,17.1448986400
3240,24119,"KOWALE",51.1289633300,17.1018384000
2969,11612,"GRABISZYŃSKA (Cmentarz II)",51.0877532300,16.9753058600
901,20341,"DWORCOWA",51.1000558900,17.0391382300
3640,31917019,"Kiełczów - pętla (Plac Jana Pawła)",51.1395649800,17.1790150200
3392,17738,"Samotworska",51.1188100000,16.8477930000
857,125007,"Park Wschodni",51.0848852000,17.0722915500
2646,29116,"PSIE POLE (Stacja kolejowa)",51.1495443400,17.1189480200
3185,87511,"Strachowice General Aviation",51.1051401688,16.8988431886
3641,31920008,"Kiełczów - pętla/Wrocławska",51.1394209800,17.1800344300
4050,25520,"Opatowicka nr 59",51.0951790000,17.1162820000
1092,31919004,"Bielawa",51.1599867800,17.2523457900
684,23126,"Kępińska",51.1442056100,17.0308209800
514,20334,"DWORCOWA",51.1011492400,17.0400173500
1962,17132,"Wiejska",51.0770027600,16.9641515900
1459,10011,"Oławska",51.1086347800,17.0339872300
3384,10240,"Narodowe Forum Muzyki",51.1081080000,17.0268200000
445,21148,"Transbud",51.0837435500,17.0588417700
2305,29503,"Wallenroda",51.1561601200,17.1204658300
426,25117,"Brochowska",51.0677280600,17.0944196000
2039,26333,"Parafialna",51.0622635700,17.0312163100
923,11373,"Wiśniowa",51.0832368700,17.0240315000
3830,23314,"ŚLAZOWA",51.1525993200,16.9960965700
1710,20801,"Ogród Botaniczny",51.1165953300,17.0520642200
3871,91606004,"Lutynia - Straż",51.1348780000,16.7840910000
1616,10004,"Rynek",51.1097681800,17.0267142700
3856,50000022,"Zębice - Trzech Lip/Prusa",51.0030480000,17.1557970000
3747,31913005,"Januszkowice - skrzy. Kępa",51.2327788400,17.2367243100
368,723961,"Bielany - skrzyżowanie",51.0390096000,16.9719273700
951,18517,"Śliwowa",51.1549000800,16.9389934200
3696,32696604,"Wilczyce Wilczycka Clarena",51.1158299400,17.1710698300
669,23152,"Irysowa",51.1506472000,17.0178953300
1547,20201,"pl. Wróblewskiego",51.1048849400,17.0483389600
1051,18532,"Królewiecka",51.1452643200,16.9464290700
2744,25134,"KSIĘŻE WIELKIE",51.0698331700,17.0975348800
458,121012,"Kamienna",51.0861830000,17.0468820000
1174,12156,"Szkocka",51.1101418200,16.9688408000
2742,10052,"Park Staromiejski",51.1049990100,17.0371063000
144,18314,"TRZMIELOWICKA (Stacja kolejowa)",51.1427507300,16.8625212500
1012,20723,"Damrota",51.1264885400,17.0548761000
980,18519,"Warmińska",51.1467358500,16.9383662400
3605,30368001,"Długołęka - Wiejska",51.1747704100,17.1772107000
670,23151,"Irysowa",51.1514322000,17.0173848600
3905,11252,"Hallera",51.0865126500,17.0114967300
3415,29128,"Psie Pole (Rondo Lotników Polskich)",51.1471400000,17.1143630000
205,12512,"Na Ostatnim Groszu",51.1233898900,16.9765406800
494,10373,"pl. Legionów",51.1037340000,17.0227260000
222,10519,"POPOWICE (Stacja kolejowa)",51.1260957700,17.0035840400
517,120204,"pl. Zgody",51.0998938400,17.0544041000
1346,11657,"Aleja Pracy",51.0917529900,16.9852588200
830,120851,"Prusa",51.1198623800,17.0562503600
3276,51938008,"Św. Katarzyna - Główna",51.0290900000,17.1190580000
2116,120623,"Na Szańcach",51.1188242300,17.0420423700
279,11713,"Ostrowskiego",51.0952951700,16.9728792200
2899,29538,"Pawłowicka",51.1683533300,17.1126890200
2905,25316,"Chińska",51.0604299400,17.0832314300
2594,24103,"Grudziądzka",51.1379492700,17.0750620300
154,18324,"Gromadzka",51.1292442500,16.8538707900
3332,50000029,"ZĘBICE - pętla",51.0051540000,17.1536210000
3738,31909002,"Siedlec - skrzy. Osiedlowa",51.2339325800,17.1215219600
388,16506,"KLECINA",51.0654071700,16.9874249900
3758,17306,"Stanisławowska (W.K. Formaty)",51.0969461700,16.9468979100
1554,20203,"pl. Zgody",51.1006037100,17.0533173300
844,20327,"Kościuszki",51.0994126300,17.0451461500
1871,120610,"DWORZEC NADODRZE",51.1243388500,17.0351198500
3834,26340,"rondo Św. Ojca Pio",51.0600960000,17.0075130000
2883,120625,"Jedności Narodowej",51.1216700300,17.0437164400
2821,10027,"pl. Nowy Targ",51.1103870600,17.0391595200
1419,10031,"GALERIA DOMINIKAŃSKA",51.1076112400,17.0396368400
2732,11366,"Pułtuska",51.0743182800,17.0150065600
1542,10244,"pl. Legionów",51.1043557400,17.0216153800
467,25303,"Topolowa",51.0695955700,17.0801135800
1754,18731,"Małomicka",51.1666983700,16.8875611400
1498,25014,"KSIĘŻE MAŁE",51.0772781900,17.0840056000
3103,21111,"PETRUSEWICZA",51.0918588100,17.0305786900
107,18509,"Kozia",51.1576890900,16.9276646100
3431,227901,"PSARY",51.1844221500,17.0284019700
2036,26303,"Wojszyce",51.0653971400,17.0322254200
3217,12732,"KOZANÓW (Dokerska)",51.1413776200,16.9638668800
1776,18364,"Mokrzańska",51.1492093400,16.8546678400
1751,20816,"PL. GRUNWALDZKI",51.1111569000,17.0614648300
108,18510,"Kozia",51.1575170200,16.9266805100
3720,32912001,"Pruszowice",51.1886252800,17.1341788500
3627,31480005,"Borowa - skrz.",51.1957667100,17.2800933000
362,723972,"Bielany - MAKRO",51.0456513900,16.9697022700
1153,16724,"KLECINA (Stacja kolejowa)",51.0581600000,16.9879110000
1983,21135,"BARDZKA (Cmentarz)",51.0723033200,17.0529123100
715,29531,"Przedwiośnie (Stacja kolejowa)",51.1602487800,17.1210092900
3298,50000007,"Siechnice - Zacisze",51.0305400000,17.1503640000
577,24521,"Libelta",51.1094591600,17.1084175700
686,23526,"Lekarska",51.1595979500,17.0276124000
2868,20729,"Mosty Warszawskie",51.1286346300,17.0560976100
498,10375,"Piłsudskiego",51.1018217400,17.0247599100
3938,18548,"Śliwowa",51.1557880000,16.9361120000
1791,17311,"MIŃSKA (Rondo Rotm. Pileckiego)",51.1053093900,16.9489282600
1318,23146,"Bezpieczna",51.1413600100,17.0263762300
2330,21138,"GAJ - pętla",51.0767818400,17.0509904200
1513,24421,"Mickiewicza",51.1085151700,17.0725707300
1633,11208,"Sztabowa",51.0881975400,17.0141845400
156,18333,"Las Ratyński",51.1235167000,16.8330710000
3647,31371012,"Pasikurowice - Energetyczna",51.2141238000,17.1098117700
3721,31371006,"Siedlec - stacja",51.2345642400,17.1212862900
2357,12604,"PILCZYCKA (Anima)",51.1350960200,16.9691335300
1167,23505,"OSOBOWICE (Stacja kolejowa)",51.1654575200,16.9989984500
1681,21008,"Gajowa",51.0919339700,17.0399381800
1150,12705,"Modra",51.1377356100,16.9648839000
3069,23312,"Witkowska",51.1484043200,16.9889220200
2317,31909004,"Tokary - osiedle",51.2307025900,17.1347456300
3683,31453024,"Domaszczyn - skrzy.",51.1889128000,17.1511035600
1052,18531,"Królewiecka",51.1460958400,16.9448838300
3254,18131,"Kosmonautów (Nowe Żerniki)",51.1392750000,16.9269980000
571,24701,"Monopolowa",51.1153852900,17.1116342900
762,29124,"Gorlicka",51.1438095000,17.1193789900
794,10522,"Dmowskiego",51.1166325900,17.0237171200
3207,227907,"Psary - Parkowa",51.1825528300,17.0402544400
3760,21108,"Działkowa",51.0783962000,17.0342315100
790,17506,"Przybyły",51.1088700500,16.9187671100
3319,50094986,"Radwanice - Dębowa",51.0442600000,17.1226830000
862,116406,"Braterska",51.0675833100,16.9994387300
917,24534,"Spółdzielcza",51.1027866300,17.1027174900
2838,90336003,"Pisarzowice - Szkolna",51.2097013000,16.8511683000
900,26325,"Malinowa",51.0669667400,17.0105973600
3036,31910002,"Pasikurowice - n/ż",51.2158836700,17.1174768500
3799,17714,"Jasińskiej",51.1208448000,16.8766394500
818,120616,"DWORZEC NADODRZE",51.1248538300,17.0348736500
3689,31921002,"Raków I",51.1699461100,17.2776362500
2115,31922006,"Kiełczówek",51.1194486800,17.1789982800
2919,21159,"Złotostocka",51.0771464300,17.0603034800
547,10123,"GALERIA DOMINIKAŃSKA",51.1080193600,17.0373825200
1473,20810,"Katedra",51.1136256800,17.0521276900
1643,24407,"Tramwajowa",51.1043278700,17.0842120400
516,20324,"Świstackiego",51.0995585900,17.0508984700
1673,24403,"ZOO",51.1056143300,17.0774178600
3797,10551,"DW. ŚWIEBODZKI",51.1084941300,17.0176683400
2945,16505,"Skarbowców",51.0662541300,16.9893355300
2745,24718,"Wojnów",51.0971220300,17.1640454700
3556,21161,"Armii Krajowej (Bogedaina)",51.0855263200,17.0662281300
215,12313,"Rysia",51.1285206700,16.9899350800
3581,11363,"Weigla (Szpital)",51.0764489300,17.0176764900
1141,12321,"DH Astra",51.1284218300,16.9756709700
952,10535,"PL. JANA PAWŁA II",51.1122343800,17.0228064700
3322,51942001,"Groblice - Kolejowa",51.0125090000,17.1719180000
326,11305,"Orla",51.0800251200,17.0077691200
820,120666,"Słowiańska",51.1236244700,17.0412335800
728,29509,"ZAKRZÓW",51.1620130600,17.1246816000
3394,51943002,"Ozorzyce-Krasińskiego",50.9990000000,17.0834190000
702,23554,"Kątowa",51.1564894300,17.0442129900
1454,20625,"Jedności Narodowej",51.1216704300,17.0437230400
4022,24144,"KROMERA",51.1319931000,17.0658681500
1897,24002,"KROMERA",51.1317605400,17.0651457600
305,10385,"Grabiszyńska",51.1015952500,17.0131843500
1971,25518,"Opatowicka nr 127",51.0921835800,17.1329421700
551,24502,"Hala Stulecia",51.1074278200,17.0726744600
1902,24202,"Kochanowskiego",51.1151185900,17.0734512800
1576,12408,"Metalowców",51.1324884700,16.9582692100
3776,23534,"Kominiarska (plac sportowy)",51.1753141900,17.0116024200
706,23558,"POLANOWICE",51.1628481700,17.0457859800
1452,16407,"Sąsiedzka",51.0668736000,16.9948905000
2276,29512,"Zakrzowska",51.1507428000,17.1158374700
529,25515,"Na Grobli",51.1016847600,17.0677242800
599,24118,"Bociania",51.1296935200,17.0981946100
321,11343,"Drukarska",51.0900688900,17.0202333600
804,20921,"PL. GRUNWALDZKI",51.1119574400,17.0625496500
698,23164,"Jutrosińska",51.1470221400,17.0419950600
3144,23710,"KOSZAROWA (Szpital)",51.1416629600,17.0647761500
3274,51938003,"Św. Katarzyna - Żernicka",51.0252500000,17.1132590000
2854,10538,"Pl. SOLIDARNOŚCI",51.1134095900,17.0179614400
3773,11202,"Zaolziańska",51.0974777700,17.0251870300
3552,26108,"Konduktorska",51.0662080000,17.0549460000
3025,31920014,"Pietrzykowice",51.1229591200,17.2324348500
88,18124,"Śnieżna",51.1495061000,16.8789305100
3010,18113,"Kosmonautów (Szpital)",51.1420698800,16.9050148800
81,18129,"Park Stabłowicki",51.1596774500,16.8936900200
439,21149,"Klimasa",51.0799002100,17.0623729600
3315,50000006,"Siechnice - Zacisze",51.0305400000,17.1501800000
3673,31472003,"Skała - skrzy. (obr. Węgrów)",51.2557989000,17.2284529300
829,120852,"Prusa",51.1194763200,17.0573170800
2855,11707,"FAT",51.0951428800,16.9794631200
3064,31908001,"Zaprężyn",51.2519651000,17.1929477200
2076,31908003,"Bierzyce - wieś",51.2384036200,17.1848725000
3123,23522,"POŚWIĘTNE",51.1506673900,17.0289560400
149,18317,"Miodowa",51.1355576700,16.8489406600
3900,11351,"Hallera",51.0860710600,17.0125515300
453,121024,"Krynicka",51.0796854400,17.0506705600
2482,18705,"Główna",51.1634006900,16.8958143900
2140,23311,"Lipska",51.1450717100,16.9873408100
3388,17720,"Jarnołtowska (Krzeptowska)",51.1202335400,16.8565220700
3329,50000019,"Siechnice - Staszica",51.0212890000,17.1595320000
3765,18515,"Maślicka (Osiedle)",51.1482274400,16.9467456700
3106,21130,"PETRUSEWICZA",51.0918600000,17.0330050000
572,24702,"Monopolowa",51.1154619200,17.1112129300
2869,17726,"Szkoła Żerniki",51.1211917700,16.9268594700
4044,17712,"Jerzmanowo (Cmentarz I)",51.1241088600,16.8860090600
897,723953,"Wysoka-Radosna",51.0487544000,17.0002200500
2316,31909003,"Tokary - osiedle",51.2308562900,17.1350530200
1777,18362,"Krępicka",51.1512331000,16.8563744500
3876,21110,"Borowska (Szpital)",51.0752569600,17.0330585000
3313,50000011,"Siechnice - Szkolna",51.0345590000,17.1461900000
3772,11201,"Zaolziańska",51.0978092500,17.0253910500
3847,41123,"Gajowa (Dawida)",51.0938080000,17.0408260000
1979,31910004,"Bukowina",51.2105786100,17.1401120700
3483,90336008,"Pisarzowice - Graniczna",51.1968230000,16.8549944000
544,10102,"Świdnicka",51.1070220600,17.0328506700
36,20303,"Urząd Wojewódzki",51.1104499100,17.0485819200
1157,11554,"Mielecka",51.0895219800,16.9996896400
2784,23110,"most Milenijny",51.1366686500,17.0004071000
617,20902,"Ogród Botaniczny",51.1174629100,17.0510953200
721,29513,"Piwnika - Ponurego",51.1502106000,17.1098420400
867,111401,"Pereca",51.1010778400,17.0075234900
145,18313,"TRZMIELOWICKA (Stacja kolejowa)",51.1433995100,16.8638031000
350,26313,"Ołtaszyn",51.0567868000,17.0237901600
1680,20616,"DWORZEC NADODRZE",51.1248409500,17.0348163400
899,26326,"Malinowa",51.0667177400,17.0105562100
1277,120821,"most Grunwaldzki",51.1101332700,17.0555734000
687,23525,"Lekarska",51.1601646900,17.0277247600
1612,11205,"Rondo",51.0911436500,17.0174944400
1206,24115,"Gęsia",51.1320167700,17.0890709400
1240,12150,"Wrocławski Park Technologiczny",51.1061153700,16.9706863800
276,17309,"Końcowa",51.0958214900,16.9624517200
322,11342,"Uniwersytet Ekonomiczny",51.0895357800,17.0272791700
3657,31453022,"Domaszczyn -Trzebnicka",51.1962283600,17.1520916500
2024,18535,"Suwalska",51.1522513600,16.9268182400
132,18104,"Grabowa",51.1397849700,16.9222746600
2554,12712,"Kolista",51.1332341200,16.9740393900
3045,29553,"Przebiśniegowa",51.1729953000,17.1135440100
1819,24102,"KROMERA",51.1316473700,17.0626302400
1282,16519,"Radio i Telewizja",51.0718578200,17.0060188100
2882,20313,"pl. Wróblewskiego",51.1060485300,17.0463805200
104,18715,"JANÓWEK (WOŚ)",51.1917211000,16.9063005900
1330,10126,"GALERIA DOMINIKAŃSKA",51.1060888000,17.0380072600
1151,11706,"FAT",51.0946277100,16.9812620600
2253,31920016,"Brzezia Łąka - cmentarz",51.1225665700,17.2389121900
239,10504,"Młodych Techników",51.1125973900,17.0121382000
3596,30098010,"Mirków - Jagiellońska",51.1681290800,17.1645747900
4041,10247,"Kolejowa",51.1032700000,17.0170090000
1250,18110,"Wschowska",51.1448632500,16.8818469500
1471,20811,"Katedra",51.1134442000,17.0502179500
1045,12507,"Bajana",51.1311920500,16.9657363200
1236,20301,"Urząd Wojewódzki",51.1085221900,17.0502200000
3821,23011,"KARŁOWICE",51.1342531700,17.0371479900
2280,31917002,"Wilczyce",51.1330209100,17.1428825800
496,11323,"Zielińskiego",51.0985220000,17.0205051500
1525,12202,"Niedźwiedzia",51.1212930400,16.9936183400
1179,120805,"Piastowska",51.1157847500,17.0601889900
2568,18402,"STADION WROCŁAW (Królewiecka)",51.1435004200,16.9503300900
761,29315,"Żmudzka",51.1446806500,17.1409566500
3351,50000037,"Żerniki Wr. - Orla",51.0365912700,17.0591632900
2798,17730,"Żernicka (Stacja kolejowa)",51.1269802100,16.9138502600
2697,723976,"Bielany - Kwiatowa",51.0333900900,16.9665450000
364,723974,"Bielany - Kościół",51.0405756600,16.9693857500
446,21147,"Transbud",51.0835254100,17.0597123500
178,17706,"Strachowicka",51.1236751000,16.9168737800
1602,20852,"Prusa",51.1194764100,17.0574045500
2726,10405,"pl. Strzegomski (Muzeum Współczesne)",51.1131478500,17.0069625800
2355,12601,"Kolista",51.1330014600,16.9728653000
625,23702,"Berenta",51.1355033400,17.0564686600
1491,20264,"Kościuszki",51.1002161400,17.0454389000
791,18357,"Mokra",51.1714601300,16.8377438800
3768,10544,"Robotnicza",51.1091136500,17.0089554400
308,11521,"Krucza",51.0935887800,17.0099333100
64,18344,"Mokrzańska",51.1473094900,16.8541876400
2947,16723,"Kościelna",51.0628624200,16.9834090000
1807,20619,"DWORZEC NADODRZE",51.1243152200,17.0339979800
1198,31341008,"Szczodre - Szkoła",51.1982979900,17.1896988900
650,23114,"Różanka",51.1393994100,17.0211160300
1334,31917010,"Wilczyce - Sosnowa",51.1314904800,17.1680686700
147,18315,"Trzmielowicka",51.1417087200,16.8553300100
250,12106,"Wyższa Szkoła Bankowa",51.1141454600,16.9793515300
54,29536,"Malwowa",51.1669278700,17.1099854200
2295,11204,"Wielka",51.0937447000,17.0207507700
228,10524,"Długa",51.1188833900,17.0148667100
1578,10452,"PL. JANA PAWŁA II",51.1121344400,17.0222294200
3548,24730,"Gospodarska",51.1181430000,17.1240820000
2217,10009,"Wita Stwosza",51.1107382200,17.0349735200
3671,31907001,"Krakowiany - skrzy.",51.2639650500,17.1902427500
2152,31922002,"Kiełczów - Rzeczna",51.1293948600,17.1746117700
1047,25146,"Blizanowicka",51.0760609100,17.0924123800
376,16716,"Kwiatkowskiego",51.0586784600,16.9557872600
3295,50395001,"Iwiny (Rondo)",51.0452000000,17.0608970000
2045,723952,"Wysoka Osiedle",51.0531000400,17.0036249900
3661,32617902,"Michałowice Skrzyżowanie",51.2359550300,17.2198430900
47,23724,"Bagatela",51.1522133200,17.0700590100
1762,25514,"Zalewowa",51.0908089200,17.1345731600
583,24711,"Zagrodnicza",51.1071760100,17.1422417100
3684,31920017,"Brzezia Łąka - Wrocławska",51.1234713600,17.2456659100
934,24125,"Kowale (Stacja kolejowa)",51.1339367600,17.1022124300
2252,31920015,"Brzezia Łąka - cmentarz",51.1227209200,17.2391994100
726,29506,"Przedwiośnie (Stacja kolejowa)",51.1596641900,17.1215061800
1963,17104,"Wiejska",51.0776360200,16.9639160200
3479,91607005,"Gałów - Przedszkole",51.1100928700,16.8156050000
3186,87509,"Zarembowicza",51.1079148144,16.8994459011
3287,50094983,"Radwanice - Mickiewicza",51.0569100000,17.1059690000
424,25132,"Brochowska",51.0690124800,17.0948041300
823,120624,"Na Szańcach",51.1193590500,17.0419311100
846,120203,"pl. Zgody",51.1006393300,17.0531732500
1583,10603,"PL. STASZICA",51.1224894900,17.0304965100
985,24300,"Śniadeckich",51.1201109200,17.0779987400
2301,26112,"ROD Zgoda",51.0662839500,17.0592868000
1171,20005042,"PSARY",51.1873110000,17.0308790000
3538,23566,"Tymiankowa",51.1757030000,16.9934700000
737,29110,"Bierutowska",51.1541496000,17.1367611200
536,25505,"Bierdzany",51.0920166300,17.0914006500
685,23125,"Kępińska",51.1444099000,17.0314311400
2516,17512,"Rdestowa",51.1109372600,16.8907686000
2876,17313,"MIŃSKA (Rondo Rotm. Pileckiego)",51.1075314500,16.9495754800
1481,21020,"Klimasa",51.0801847400,17.0626517100
3296,50000059,"Trestno",51.0758000000,17.1456490000
1380,20631,"Daszyńskiego",51.1263300000,17.0476616300
1417,10022,"GALERIA DOMINIKAŃSKA",51.1084040300,17.0385789900
1284,16507,"Zimowa",51.0706458300,16.9987564800
1543,10243,"pl. Legionów",51.1048312500,17.0225798600
1555,20204,"pl. Zgody",51.0998940500,17.0543140600
2371,21142,"Borowska",51.0880667700,17.0364739000
539,85512,"OPATOWICE",51.0949183300,17.1286193500
30,10381,"pl. Orląt Lwowskich",51.1071331900,17.0193938800
86,18126,"Ciechocińska",51.1525570000,16.8834970000
833,120853,"Piastowska",51.1162080000,17.0609890100
886,20317,"Kościuszki",51.1000415800,17.0444163500
1499,24010,"Kwidzyńska",51.1316188000,17.0794718900
3632,31918006,"Kamień - Bursztynowa",51.1685324000,17.2138895500
3930,18504,"Rędzińska (Cmentarz)",51.1488387700,16.9455355700
386,16503,"Os. Przyjaźni",51.0692228100,16.9966602700
1526,12201,"Niedźwiedzia",51.1214828200,16.9934177900
2329,21139,"GAJ - pętla",51.0771230900,17.0495971700
3660,32617801,"Michałowice Skrzyżowanie",51.2360421900,17.2198812300
1159,11376,"Jaworowa",51.0817118000,17.0231520600
106,18507,"Północna",51.1575562100,16.9335171300
402,17114,"Adamieckiego",51.0742591700,16.9629950300
1258,29928,"Żmudzka",51.1454284000,17.1427060700
3835,26338,"rondo Św. Ojca Pio",51.0593500000,17.0078240000
3293,50000055,"STARODWORSKA (ZUW)",51.0713800000,17.1167980000
1490,20263,"Kościuszki",51.1001978000,17.0452882600
3574,20339,"DWORCOWA",51.1006011500,17.0392713100
3719,32623507,"Domaszczyn Stawowa",51.1887715300,17.1504335600
3606,30368002,"Długołęka - Wiejska",51.1750964800,17.1799630600
1126,18527,"Kozia",51.1574673900,16.9279079700
3473,92052011,"Brzezinka Średzka - Główna",51.2158882000,16.8369020000
803,24322,"SĘPOLNO",51.1139437200,17.1036990900
3232,18150,"Małopolska (Ośrodek dla niewidomych)",51.1376960800,16.8987096800
120,12720,"KOZANÓW",51.1374775400,16.9683083100
1561,20613,"Paulińska",51.1202902400,17.0353334500
1517,10403,"Młodych Techników",51.1128750200,17.0119350800
3715,31920004,"Kiełczów - Biedronka",51.1428357400,17.1648719200
3733,31917017,"Kiełczów - cmentarz",51.1376957000,17.1774496800
2278,29515,"ROD Pod Dębem",51.1543370700,17.1046708800
2492,17725,"Szkoła Żerniki",51.1214013500,16.9250679900
2979,12142,"NOWY DWÓR (pętla)",51.1194915200,16.9517771400
3651,31371016,"Pasikurowice - cmentarz",51.2056802100,17.1009063400
2941,31920009,"Kiełczów - Boczna",51.1374282200,17.1886397600
3017,31480003,"Stępin",51.2084830100,17.2808881800
3418,11361,"Sudecka",51.0847899900,17.0189261000
1152,18524,"Turoszowska",51.1527705700,16.9473097800
2550,18202,"LEŚNICA",51.1446593000,16.8724220600
3836,26339,"ZWYCIĘSKA",51.0594300000,17.0109800000
103,18716,"JANÓWEK (WOŚ)",51.1917403100,16.9060830700
2748,24136,"Olsztyńska",51.1393859700,17.0951032000
1451,16408,"Sąsiedzka",51.0667437300,16.9946541100
720,29514,"Piwnika - Ponurego",51.1495054200,17.1110523200
3252,18018,"Kosmonautów (Nowe Żerniki)",51.1390510000,16.9271760000
1124,18723,"Wilkszyńska",51.1735436700,16.8866726600
313,11532,"Zaporoska",51.0969611100,17.0156446500
524,25102,"Krakowska",51.0927741200,17.0611202900
3770,23512,"Perzowa",51.1766331200,16.9916496600
268,17501,"Park Tysiąclecia",51.1092177700,16.9415729200
3367,50000027,"Kotowice - Ogrodowa",51.0218300000,17.2313800000
256,12110,"Nowy Dwór",51.1123561600,16.9608058600
196,12902,"Hermanowska",51.1222380000,16.9556230000
3805,10541,"DW. ŚWIEBODZKI",51.1085806700,17.0180662400
997,20322,"Komuny Paryskiej",51.1015229100,17.0474334700
337,16526,"Hippiczna",51.0679444400,17.0088540200
1219,26101,"Buforowa",51.0706058800,17.0537077300
605,24133,"Brücknera",51.1384525600,17.0817861900
3273,51939001,"Żerniki Wr. - Kolejowa",51.0306620000,17.0632260000
2505,29119,"PSIE POLE (Stacja kolejowa)",51.1505801000,17.1205503400
1557,25008,"Park Wschodni",51.0851935000,17.0720408200
1653,20281,"Urząd Wojewódzki",51.1098023400,17.0479983100
3074,26330,"Husarska",51.0602018500,17.0012068000
425,25131,"Brochowska",51.0691156800,17.0929395700
855,121007,"Gajowa",51.0917270400,17.0401052200
1868,20615,"DWORZEC NADODRZE",51.1247491800,17.0349755900
3225,24130,"Kowalska 56",51.1364754100,17.0974021900
2172,23155,"Obornicka (Obwodnica)",51.1579494300,17.0099928900
1536,11214,"Orla",51.0801449600,17.0081865400
3110,25120,"Opolska",51.0655358300,17.0968956500
644,23143,"Bałtycka",51.1382819000,17.0293741400
1447,11211,"Jastrzębia",51.0842209300,17.0104920200
234,10508,"ZACHODNIA (Stacja kolejowa)",51.1160666300,17.0004452200
2998,18116,"Fieldorfa (Szpital)",51.1441460000,16.9067010000
93,18711,"PRACZE ODRZAŃSKIE (Stacja kolejowa)",51.1721498500,16.9033906600
3603,30368003,"Długołęka - Kasztanowa",51.1776930900,17.1880799200
1759,12905,"KUŹNIKI",51.1238970000,16.9508620000
3716,31472001,"Węgrów (na wys. nr 19)",51.2643078000,17.2207111000
1641,16401,"Radio i Telewizja",51.0715518400,17.0057435900
1128,18735,"Marszowicka",51.1630125700,16.8783571200
2877,11320,"EPI",51.0981254200,17.0317100300
3222,18147,"Małopolska (Ośrodek dla niewidomych)",51.1378757500,16.8977163500
1566,11401,"Pereca",51.1010779000,17.0074396800
1619,11036,"Sanocka",51.0933931000,17.0304163200
40,12102,"Wrocławski Park Przemysłowy",51.1125666800,16.9942315400
3416,12538,"Bulwar Dedala",51.1273515200,16.9639283500
2725,17302,"Tyrmanda",51.1035229500,16.9462130400
2571,18013,"Stadion Wrocław (Lotnicza)",51.1373814700,16.9403289800
35,20332,"Krasińskiego",51.1058589600,17.0433408200
2927,31920010,"Kiełczów - Zgodna",51.1376220700,17.1869286600
793,10523,"Dmowskiego",51.1169654800,17.0236462200
2853,80362012,"SAMOTWÓR-PAŁAC",51.1029664400,16.8312571600
1632,11207,"Sztabowa",51.0887388500,17.0146551500
576,24315,"SĘPOLNO",51.1136450200,17.1033342800
3308,50094051,"Radwanice - Mickiewicza",51.0569100000,17.1057840000
1431,18003,"Grabowa",51.1399247800,16.9209347400
2023,18534,"Suwalska",51.1517722600,16.9271541000
1484,16410,"KLECINA",51.0656686300,16.9873501300
2884,12121,"Nowy Dwór",51.1124954700,16.9596744000
1307,12530,"Gądowianka",51.1201672100,16.9730231300
3625,30440005,"Borowa - skrz.",51.1945381000,17.2799901000
1558,12403,"Park Zachodni",51.1293256100,16.9721211200
1684,24416,"BISKUPIN",51.1012573000,17.1091415100
77,18374,"Polkowicka",51.1552629200,16.8730698200
1063,18307,"Pustecka",51.1399633500,16.8539153800
1215,26302,"Przystankowa",51.0715250900,17.0325755300
380,16701,"Kościelna",51.0636966100,16.9813820000
1580,10402,"PL. JANA PAWŁA II",51.1118939900,17.0206968500
578,24522,"Libelta",51.1100021200,17.1086767900
615,20722,"Wyszyńskiego",51.1226808900,17.0525753700
3279,50094041,"Siechnice",51.0317650000,17.1414020000
269,17508,"Graniczna",51.1083600200,16.9100751600
99,18514,"Lubelska",51.1634860400,16.9192652800
1635,10414,"Śrubowa",51.1119743200,17.0003038100
186,18144,"Wielkopolska",51.1411474200,16.8869030800
3807,26318,"rondo Św. Ojca Pio",51.0595318500,17.0062612700
332,11356,"Jarzębinowa",51.0812965700,17.0165659600
3073,26329,"Husarska",51.0601287200,17.0020983500
3336,51945004,"Św. Katarzyna - szpital",51.0194810000,17.1180680000
63,18354,"Brzezińska",51.1494385600,16.8666212800
319,11345,"Rondo",51.0916774800,17.0162404300
3700,31921006,"Raków III",51.1580114900,17.2726919300
1575,24412,"Piramowicza",51.1031808000,17.0963274400
454,21172,"Orzechowa",51.0833436600,17.0394669600
3412,12539,"Bulwar Dedala",51.1267875000,16.9629985200
532,25503,"Międzyrzecka",51.0943624900,17.0823601800
2096,32622601,"Długołęka - Robotnicza",51.1780222100,17.2007786300
3390,50000066,"Św. Katarzyna - szkoła",51.0253310000,17.1144650000
3349,50000038,"Radomierzyce",51.0433020000,17.0462480000
3628,30368007,"Byków - Ogrodowa",51.1920389800,17.2400111300
1411,11607,"Fiołkowa",51.0921059300,16.9774910100
89,18121,"Jeleniogórska",51.1456283400,16.8760243800
3750,31480002,"Stępin - kościół",51.2134415000,17.2855453000
607,24303,"Śniadeckich",51.1197837900,17.0774629500
3516,110223,"DWORZEC GŁÓWNY",51.1007139500,17.0360707800
3451,11701,"Bzowa (Centrum Zajezdnia)",51.0975086400,16.9913099400
2044,723951,"Wysoka Osiedle",51.0532800400,17.0036759900
1741,120823,"PL. GRUNWALDZKI",51.1117002800,17.0604315100
1550,10274,"pl. Orląt Lwowskich",51.1072991700,17.0214432800
2493,4,"Zajezdnia BOREK",51.0782376500,17.0068459900
3622,31921003,"Raków II",51.1690342300,17.2775475500
1180,24532,"Mickiewicza",51.1092717900,17.0747493600
1823,723955,"Wysoka-Chabrowa",51.0480900600,17.0035423900
3433,90094001,"Krępice",51.1534825200,16.8155185400
3134,25309,"BROCHÓW",51.0589640000,17.0864790000
730,29521,"Królewska",51.1555519900,17.1292482700
1209,24523,"Chełmońskiego",51.1036518100,17.0909484200
2570,18502,"STADION WROCŁAW (Królewiecka)",51.1440074700,16.9496930400
3219,18106,"Kamiennogórska (Ośrodek dla niewidomych)",51.1424931800,16.9007395500
1194,29112,"BIERUTOWSKA (Wiadukt)",51.1581934000,17.1465465800
90,18122,"Jeleniogórska",51.1463339100,16.8763782900
3077,18737,"Wojanowska",51.1540460000,16.8947940000
817,120614,"Paulińska",51.1209707300,17.0350993300
2959,10222,"Wzgórze Partyzantów",51.1036847000,17.0372823900
597,24116,"Gęsia",51.1320290400,17.0878363100
314,11531,"Zaporoska",51.0969778600,17.0135578800
187,18146,"Złotniki",51.1389365300,16.8934000800
375,82024005,"Kwiatkowskiego",51.0587269700,16.9556470700
1520,20205,"Na Niskich Łąkach",51.0971004500,17.0560912500
3712,31453012,"Łozina - Milicka/szkoła",51.2348521100,17.1812383400
515,120213,"Świstackiego",51.0990054400,17.0501344200
2542,24016,"KOWALE",51.1284171500,17.1021457800
1119,21177,"SPISKA (Ośrodek sportu)",51.0831455300,17.0311058100
1637,10002,"Świdnicka",51.1072061900,17.0326635900
582,24712,"Zagrodnicza",51.1067304600,17.1432352200
1655,20292,"Urząd Wojewódzki",51.1086373700,17.0495530400
789,17505,"Przybyły",51.1089846600,16.9171314200
133,18103,"Grabowa",51.1400562100,16.9209472000
3612,31920003,"Kiełczów - Biedronka",51.1426775300,17.1665650500
584,24719,"Kmieca",51.1046407500,17.1466674300
3461,24145,"Kromera (Czajkowskiego)",51.1363143000,17.0704444900
1647,20618,"Trzebnicka",51.1286499100,17.0365318700
695,227902,"PSARY",51.1843955600,17.0286792500
2786,23201,"most Milenijny",51.1360049100,16.9983194200
3820,24210,"8 Maja",51.1136691900,17.0911197100
1457,21005,"Joannitów",51.0933772400,17.0361176600
2122,21024,"Krynicka",51.0795393800,17.0507425100
3289,50094049,"Radwanice - Poprzeczna",51.0528900000,17.1100500000
1535,11213,"Orla",51.0801037600,17.0080294800
629,23732,"Berenta",51.1357800000,17.0575871100
3587,31909009,"Łozina - Nowego Osiedla II",51.2332079900,17.1635124600
1650,25002,"Krakowska",51.0931094000,17.0606087300
1587,20682,"PL. STASZICA",51.1228805000,17.0305476900
1964,17113,"Adamieckiego",51.0732833300,16.9636527200
1249,21151,"TARNOGAJ",51.0777923300,17.0646699500
2273,29501,"Zakrzowska",51.1520301100,17.1165644800
3918,24704,"Kolumba",51.1141008400,17.1170798400
1534,10054,"Opera",51.1055157100,17.0320637400
2288,21118,"ROD Bajki",51.0838947200,17.0352944100
3819,24209,"8 Maja",51.1136047100,17.0914420400
2695,29320,"Inflancka",51.1423583500,17.1304153200
1125,18706,"Główna",51.1631701300,16.8966747800
351,26312,"Kurpiów",51.0548816500,17.0266107900
427,25118,"Brochowska",51.0679344000,17.0943708300
3725,31341017,"Łozina Cmentarz",51.2285671100,17.1806044700
3795,26109,"Kajdasza",51.0536790000,17.0579230000
3854,51972006,"Zębice - Trzech Lip/Prusa",51.0025190000,17.1562810000
236,10512,"Inowrocławska",51.1155868600,17.0139613900
3328,50094810,"Siechnice - Ogrodnictwo",51.0245030000,17.1528700000
293,11703,"Hutmen",51.0959695900,16.9853453800
554,24503,"Tramwajowa",51.1042169300,17.0831066900
3740,32911805,"Domaszczyn Wrocławska Skrzyżowanie",51.1878746900,17.1532456100
1098,30440004,"Borowa - szkoła",51.1894895500,17.2790538400
311,11512,"Krucza",51.0950533500,17.0086204000
3291,50000053,"Starodworska",51.0738100000,17.1085530000
3936,11552,"RACŁAWICKA",51.0777720000,16.9837450000
3310,50000017,"Siechnice - ZOZ",51.0376510000,17.1399760000
3393,17737,"Samotworska",51.1191000000,16.8478040000
2018,23167,"Gąsiorowskiego",51.1438550100,17.0397542700
3379,23725,"KOSZAROWA (Uniwersytet)",51.1404951600,17.0684798900
3816,18720,"Stabłowicka",51.1703400000,16.9016280000
2268,11333,"Komandorska",51.0921600900,17.0245164000
3325,51942004,"Zębice - Prusa",51.0094520000,17.1662130000
3666,31909005,"Tokary - centrum",51.2331200700,17.1404955900
3132,21152,"TARNOGAJ",51.0785975300,17.0639382600
3057,18392,"Rubczaka",51.1440717400,16.8661112600
4032,17739,"Kaczorowskiego",51.1270430000,16.8801210000
1267,11338,"Jastrzębia",51.0846358300,17.0112074900
3145,23730,"SOŁTYSOWICE",51.1551703700,17.0644222100
3615,31913012,"Dobroszów Oleśnicki",51.2163707600,17.2287080600
3195,29137,"MULICKA",51.1450600000,17.1168390000
1757,18204,"LEŚNICA",51.1446892600,16.8723451000
2374,21104,"Borowska",51.0892957400,17.0341406700
2052,21026,"Morwowa",51.0772526500,17.0517399700
1453,20626,"Jedności Narodowej",51.1215486000,17.0434567500
3646,31371015,"Pasikurowice - Energetyczna",51.2140019900,17.1098455100
2077,31908004,"Bierzyce - wieś",51.2383927100,17.1845802400
647,23124,"Kamieńskiego",51.1395609400,17.0327146700
856,120205,"Na Niskich Łąkach",51.0977333300,17.0558803700
378,16704,"WAŁBRZYSKA",51.0639551200,16.9795281100
1114,26336,"Świt",51.0608632600,17.0270292000
613,24112,"KROMERA",51.1323779400,17.0630109500
1264,17117,"Marchewkowa",51.0664376600,16.9741303100
1869,20610,"DWORZEC NADODRZE",51.1243144200,17.0350332100
3441,23527,"Rondo Obrońców Grodna",51.1648396200,17.0281034400
2041,20623,"Na Szańcach",51.1189024500,17.0420412600
2920,21158,"Złotostocka",51.0773453200,17.0618224100
3105,21153,"PETRUSEWICZA",51.0917530000,17.0320600000
993,18518,"Brodzka",51.1576467400,16.9216401400
3861,17123,"Jordanowska",51.0787900000,16.9567230000
1489,24221,"Kopernika",51.1119911300,17.0848445100
2716,18386,"LEŚNICA",51.1447892900,16.8718135300
3267,23004,"Serbska (C.K. Agora)",51.1336537900,17.0198858100
3648,31371011,"Pasikurowice - skrzy. Malinowa",51.2095317100,17.1039360400
1420,10032,"GALERIA DOMINIKAŃSKA",51.1076956300,17.0396649200
1374,24204,"Chopina",51.1168782100,17.0819947300
965,110602,"Pomorska",51.1172673500,17.0320013500
1497,11216,"KRZYKI",51.0748613600,17.0072281800
3849,91606001,"Lutynia Osiedle",51.1374230000,16.7957840000
701,23553,"Kątowa",51.1561942400,17.0443834300
2741,10051,"Park Staromiejski",51.1051252900,17.0368984800
3323,51942002,"Groblice - Kolejowa",51.0124370000,17.1715610000
1529,21015,"Nyska",51.0829921100,17.0546832000
1516,10404,"Młodych Techników",51.1127756400,17.0119553900
185,18143,"Wielkopolska",51.1405879400,16.8875703200
3302,51939002,"Żerniki Wr. - Kolejowa",51.0306050000,17.0630610000
1186,23719,"Poprzeczna",51.1466086000,17.0741987400
586,24713,"Smocza",51.1027130000,17.1554810000
3458,24211,"Godebskiego (AWF Wrocław)",51.1138255300,17.0970024400
2488,29133,"Poleska",51.1460447200,17.1282584700
3318,50094047,"Radwanice - Dębowa",51.0442600000,17.1228670000
1731,32619201,"Bukowina",51.2107663100,17.1401239400
543,10103,"Rynek",51.1110606000,17.0272088000
3545,21004,"Joannitów",51.0940902800,17.0337646200
1900,124202,"Kochanowskiego",51.1150654000,17.0732761300
2274,29504,"Wallenroda",51.1549666500,17.1191277600
3867,91606009,"Radakowice - Świetlica",51.1293130000,16.7425990000
1605,20266,"Pułaskiego",51.0981942500,17.0430250300
913,18321,"Ratyń - skrzyżowanie",51.1295846700,16.8477604000
2331,21140,"GAJ - pętla",51.0767824000,17.0505479400
534,25508,"Nowy Dom",51.0934020400,17.1070655300
3908,21014,"Bardzka",51.0834758500,17.0492901000
394,16518,"Wawrzyniaka",51.0765863700,16.9968549000
2049,121026,"Morwowa",51.0772523100,17.0517072200
1581,10401,"PL. JANA PAWŁA II",51.1120850000,17.0204875700
1573,12410,"PILCZYCE",51.1359477000,16.9505394800
2356,12602,"Kolista",51.1329353800,16.9727068400
1615,10005,"Rynek",51.1112032800,17.0269481100
3852,31371002,"Godzieszowa - transformator",51.2415620900,17.1309744600
982,11330,"Arena",51.0950282600,17.0272614900
928,11375,"Jaworowa",51.0803377500,17.0212776300
1528,20627,"Nowowiejska",51.1243609700,17.0451328100
918,12540,"Szybowcowa",51.1301180700,16.9660210200
2815,10365,"Arkady (Capitol)",51.1020902000,17.0294678100
525,25101,"Krakowska",51.0925743300,17.0609456000
223,10520,"POPOWICE (Stacja kolejowa)",51.1258924200,17.0028523700
320,11344,"Drukarska",51.0897742800,17.0213907500
2640,20370,"Pułaskiego",51.0986714900,17.0439781800
3703,31453007,"Kępa - skrzy.",51.2410006900,17.1955393500
357,26304,"Wojszyce",51.0658319400,17.0323988000
1879,26114,"Tunelowa",51.0651283100,17.0646960900
754,29132,"KIEŁCZOWSKA (LZN)",51.1467764000,17.1209557100
640,20718,"Trzebnicka",51.1279170600,17.0363428100
2782,29925,"Kiełczowska (Cmentarz)",51.1448648400,17.1494268600
3713,31453011,"Łozina - Milicka/szkoła",51.2347397500,17.1813188000
1191,29305,"Mroźna",51.1349244300,17.1379010400
62,18356,"Dolnobrzeska",51.1550096700,16.8590301600
3669,31423021,"Bukowina - skrzy.",51.2049655100,17.1538612200
1434,20807,"Grunwaldzka",51.1151340100,17.0667623800
306,11536,"Krucza",51.0921559300,17.0084854600
389,16531,"KLECINA",51.0658163200,16.9881728400
1164,123002,"most Osobowicki",51.1330485300,17.0276312700
3767,18326,"Rodła",51.1247121300,16.8636410200
3595,31919009,"Piecowice",51.1443260000,17.2177718500
200,12517,"Hynka",51.1224620800,16.9621544900
1506,23002,"most Osobowicki",51.1330474500,17.0275404900
282,11727,"Aleja Pracy",51.0912815800,16.9865558100
2885,12107,"Nowodworska",51.1138580300,16.9647181400
2956,17509,"Zarembowicza",51.1079012900,16.8993525100
1421,24011,"Gęsia",51.1318492300,17.0881661100
1123,90336009,"Wilkszyn - Polna",51.1886197000,16.8665259000
3182,11730,"OPORÓW",51.0841298200,16.9720121500
1149,17304,"Muchobór Wielki",51.0989253500,16.9415527700
1901,124201,"Kochanowskiego",51.1151273100,17.0737479000
1208,24311,"Park Szczytnicki",51.1115466600,17.0830265300
3870,91606003,"Lutynia - Straż",51.1349880000,16.7830950000
1172,229703,"Szymanów - skrzyż.",51.1884069300,17.0306521000
1702,31453019,"Bąków",51.2117570200,17.1594742400
1336,18350,"Owczarska",51.1517139500,16.8646837100
699,23556,"Ługowa",51.1587789600,17.0444394600
1074,23519,"Pracze Widawskie",51.1776764800,17.0155968700
497,11324,"Zielińskiego",51.0981001900,17.0202284100
1551,10273,"pl. Orląt Lwowskich",51.1073735000,17.0215681200
841,110021,"GALERIA DOMINIKAŃSKA",51.1085276100,17.0387922100
624,23701,"Berenta",51.1349714000,17.0577733900
471,26104,"Jagodno",51.0592203000,17.0564478600
3732,31917015,"Kiełczów - WODROL",51.1351346700,17.1758657000
288,11745,"Ślusarska",51.0847614100,16.9905185000
1432,18004,"Grabowa",51.1397749600,16.9213887800
1190,29303,"Zgorzelisko",51.1383725500,17.1313198600
3711,31453013,"Łozina - Milicka/poczta",51.2331773400,17.1775206200
393,16514,"Sowia",51.0737487700,17.0016200900
3244,29545,"Odolanowska",51.1659900000,17.1295520000
1495,24003,"KROMERA",51.1316622500,17.0652258100
1368,20826,"Bujwida",51.1136338100,17.0674990400
2618,12607,"Kozanowska",51.1390591400,16.9654023200
1882,25317,"Park Brochowski",51.0627158000,17.0758671600
1185,23717,"Koszarowa",51.1403086600,17.0701030500
3586,31909008,"Łozina - Nowego Osiedla I",51.2334363000,17.1719646600
3877,23552,"Milicka",51.1523470000,17.0434690000
1524,10013,"Uniwersytecka",51.1126320200,17.0358535200
1595,10655,"Pomorska",51.1178923100,17.0310019500
2539,25319,"Ziemniaczana",51.0532118800,17.0931592200
241,10534,"PL. JANA PAWŁA II",51.1112182800,17.0214086700
2818,10234,"Arkady (Capitol)",51.1009390900,17.0289667400
1329,23105,"OSOBOWICKA (Cmentarz II)",51.1349043200,17.0091195400
940,24721,"Mikołowska",51.1107977500,17.1368036600
944,10378,"Grabiszyńska",51.1024615200,17.0145108900
1158,11539,"Gajowicka",51.0884453400,17.0054643500
317,11335,"Pl. Hirszfelda",51.0944897700,17.0163348100
2935,29108,"BIERUTOWSKA (Ośrodek zdrowia)",51.1516490000,17.1307490000
4017,31918009,"Długołęka-Broniewskiego (na wys. nr 11)",51.1765770000,17.1914920000
1423,18002,"Glinianki",51.1379238300,16.9363732100
942,20909,"Katedra",51.1136232700,17.0513247700
2863,11726,"FAT",51.0937556100,16.9803761500
3737,31909001,"Siedlec - skrzy. Osiedlowa",51.2340497600,17.1214810200
3617,31918005,"Kamień - Bursztynowa",51.1688035900,17.2133833100
1048,17121,"Wiejska",51.0774246200,16.9621792400
1708,20831,"Ogród Botaniczny",51.1161181000,17.0510732200
3902,21013,"Bardzka",51.0829166600,17.0504896100
2105,31453027,"Pruszowice - las",51.1833116600,17.1449298900
2968,11613,"GRABISZYŃSKA (Cmentarz II)",51.0876858400,16.9751857000
3869,91606011,"Łowęcice - Staw",51.1214340000,16.7404210000
3428,71951011,"Ślęza (ul. Dębowa)",51.0384550000,16.9861450000
1669,10407,"ZACHODNIA (Stacja kolejowa)",51.1166283300,17.0003626000
2260,12111,"Rogowska",51.1104645400,16.9558800200
1238,24318,"Stadion Olimpijski",51.1169679400,17.0902603700
3208,227908,"Psary - Parkowa",51.1828911300,17.0396517300
2490,12129,"Kołobrzeska",51.1219857100,16.9475415100
1470,20812,"Katedra",51.1133172200,17.0500348600
2285,11327,"Wielka",51.0929713500,17.0194295900
3075,90000001,"Brzezina - Kościół",51.2023321000,16.8327646000
1011,120206,"Na Niskich Łąkach",51.0962619600,17.0567221800
2880,24509,"BARTOSZOWICE",51.1025481000,17.1160670600
3026,31920011,"Śliwice",51.1289368400,17.2140311300
1388,20612,"Dubois",51.1170930400,17.0339673900
639,23131,"Broniewskiego",51.1358510100,17.0373830600
171,17733,"Gałowska",51.1132364400,16.8450913800
2817,10233,"Arkady (Capitol)",51.1016523800,17.0292595400
1649,25001,"Krakowska",51.0933109800,17.0599428100
2199,80362013,"Samotwór - Dębowa",51.1064770000,16.8359480000
1339,18533,"Brodzka",51.1575745900,16.9240635500
398,17116,"Morelowskiego",51.0702261200,16.9682534000
2284,11328,"Wielka",51.0942240200,17.0215310400
1600,21010,"Prudnicka",51.0900471900,17.0448159600
3766,24129,"Olsztyńska",51.1404469700,17.0940870700
1199,31341007,"Szczodre - stawy",51.2044680000,17.2053534500
2881,24140,"KROMERA",51.1320326100,17.0655881200
1604,16403,"Przyjaźni",51.0685463800,17.0032825400
2294,11203,"Wielka",51.0941514200,17.0210274000
1188,24105,"Brücknera",51.1391682700,17.0808060300
537,25506,"Bierdzany",51.0921170300,17.0912942500
626,23134,"Pola",51.1367169500,17.0431746800
3304,51938006,"Św. Katarzyna - Żernicka",51.0252000000,17.1135730000
909,18310,"Płońskiego",51.1446192400,16.8673237400
1231,24507,"BISKUPIN",51.1009889400,17.1087868800
3842,51942007,"Sulęcin",50.9928550000,17.1502280000
508,11321,"DWORZEC AUTOBUSOWY",51.0972677900,17.0322836700
46,227911,"KRZYŻANOWICE",51.1740924200,17.0488776800
700,23555,"Ługowa",51.1592049500,17.0446813800
1278,10555,"Dmowskiego",51.1169898900,17.0256625400
1239,12153,"Wrocławski Park Technologiczny",51.1050638300,16.9707481600
643,23172,"Bałtycka",51.1371797200,17.0294499300
1946,29530,"OSIEDLE SOBIESKIEGO",51.1592538700,17.1327617400
4028,11526,"Kolbuszowska (Stadion)",51.0939672200,16.9968875900
1232,11341,"Uniwersytet Ekonomiczny",51.0897680300,17.0267317900
1319,23727,"Sołtysowicka",51.1424517800,17.0709130900
814,110601,"Pomorska",51.1172336100,17.0316115400
3457,11601,"Bzowa (Centrum Zajezdnia)",51.0976122400,16.9919245600
1783,11319,"Gwiaździsta",51.0995503700,17.0262885600
579,24723,"Miłoszycka",51.1165595700,17.1271468400
3573,20352,"DWORZEC AUTOBUSOWY",51.0970610000,17.0373520000
1279,10556,"Dmowskiego",51.1152713500,17.0243585900
2791,23170,"Kamieńskiego (Szpital)",51.1486829400,17.0429112300
4031,17731,"Piołunowa",51.1219120000,16.8795080000
2835,24142,"KROMERA",51.1320085300,17.0657783000
1413,11452,"Gajowicka",51.0881765000,17.0056747900
3440,23528,"Rondo Obrońców Grodna",51.1647578600,17.0276791400
1584,20662,"PL. STASZICA",51.1225510300,17.0308837600
727,29508,"ZAKRZÓW",51.1618697000,17.1244177400
3674,31472004,"Skała - skrzy. (obr. Węgrów)",51.2556714000,17.2283262700
3693,32696202,"Wilczyce Wilczycka Stary Młyn",51.1228694700,17.1549152900
1504,20821,"most Grunwaldzki",51.1101381200,17.0554933300
3655,32911803,"Domaszczyn Kościół",51.1880416500,17.1650393500
3269,50000035,"ŻERNIKI WROCŁAWSKIE",51.0334200000,17.0557170000
3299,50094039,"Siechnice - Ogrodnictwo",51.0248280000,17.1525860000
3133,21154,"TARNOGAJ",51.0786695200,17.0643093200
3443,23537,"Rondo Obrońców Grodna",51.1665236300,17.0273642600
2931,31920005,"Kiełczów - Wrocławska",51.1412775600,17.1733541100
3282,50000002,"Radwanice - Szkoła",51.0486200000,17.1156490000
1579,10451,"PL. JANA PAWŁA II",51.1122244400,17.0225310600
1273,10108,"Rynek",51.1094083200,17.0264757300
646,23123,"Kamieńskiego",51.1393462800,17.0331472500
2711,29322,"Szewczenki",51.1418492700,17.1231984300
97,18701,"Chwałkowska",51.1597972000,16.9101406700
3848,91606002,"Lutynia Osiedle",51.1372050000,16.7957630000
1475,23017,"Kępińska",51.1442188300,17.0312330000
3699,31921005,"Raków III",51.1583466300,17.2729105400
800,18511,"Jędrzejowska",51.1583647700,16.9168876700
1025,18708,"Główna",51.1629043700,16.8957229600
1286,24319,"Moniuszki",51.1194327700,17.0816041200
3629,30368008,"Byków - Ogrodowa",51.1907642100,17.2347376700
3523,10268,"DWORZEC GŁÓWNY",51.1000018600,17.0353093500
2717,18384,"LEŚNICA",51.1448620800,16.8719590700
138,18142,"Złotnicka",51.1436261400,16.8893468900
3275,51938002,"Smardzów - Reja",51.0277990000,17.0845800000
1742,120824,"PL. GRUNWALDZKI",51.1114348700,17.0598402600
3679,31918004,"Długołęka - Nowy Urząd",51.1739721400,17.2021439700
1753,120822,"most Grunwaldzki",51.1101360600,17.0550925200
1407,11660,"FAT",51.0940732600,16.9803276600
2175,23543,"Poświęcka",51.1565148000,17.0340930700
1877,26328,"Ożynowa",51.0649495100,17.0099101300
1145,10503,"Młodych Techników",51.1130337800,17.0125979100
4043,17711,"Jerzmanowo (Cmentarz I)",51.1236229900,16.8837995500
3926,18506,"Maślice Małe (Brodnicka)",51.1533120800,16.9395463900
1065,21175,"Wiśniowa",51.0835491300,17.0264160100
3904,11210,"Hallera",51.0859918300,17.0117324300
1337,18349,"Owczarska",51.1527587700,16.8635621500
1030,24110,"C.H. Korona",51.1421242700,17.0927085500
464,25302,"Wiaduktowa",51.0752130500,17.0764034900
3305,51938005,"Św. Katarzyna - Główna",51.0282970000,17.1178110000
2180,92052016,"Brzezina - Osiedle",51.1925184000,16.8335414000
661,23306,"Lipska",51.1443278900,16.9871264400
275,17308,"Krzemieniecka",51.0967339800,16.9548996900
1387,10411,"Dolmed",51.1141388300,17.0023525400
2792,23169,"Kamieńskiego (Szpital)",51.1491042200,17.0432048100
3255,17128,"TYNIECKA (pętla)",51.0759615900,16.9528937500
1175,10703,"PL. STASZICA",51.1221422800,17.0307665800
1764,12510,"Rękodzielnicza",51.1362357200,16.9603393900
988,24128,"Kowalska",51.1296578800,17.1131234000
153,98325,"RATYŃ",51.1297596400,16.8604872400
72,18732,"Marszowice",51.1668650200,16.8901242700
182,17701,"Szczecińska",51.1225505800,16.9307786400
3619,31918007,"Kamień - skrzy.",51.1670032400,17.2192665200
266,17503,"Zagłoby",51.1098037400,16.9280002300
691,23529,"Widawa",51.1757613100,17.0232191100
3764,18327,"Rodła",51.1247949300,16.8635310600
3812,26323,"rondo Św. Ojca Pio",51.0589179100,17.0068889100
1709,20802,"Ogród Botaniczny",51.1168194200,17.0502544400
3873,12136,"NOWY DWÓR (pętla)",51.1193625700,16.9518957500
123,12715,"Dzielna",51.1388593600,16.9747484300
3270,50000033,"Św. Katarzyna - stacja",51.0297100000,17.1222120000
2245,31917008,"Wilczyce - Dębowa",51.1303269200,17.1628235800
3127,12114,"Centrum Zarządzania Kryzysowego",51.1146291900,16.9722976100
783,11538,"Gajowicka",51.0886347900,17.0066463300
636,23122,"Broniewskiego",51.1350993400,17.0364976500
896,723954,"Wysoka-Radosna",51.0487255500,16.9999521600
1538,23005,"OSOBOWICKA (Cmentarz II)",51.1345775700,17.0112481600
1244,20931,"Katedra",51.1141993800,17.0507981200
218,10518,"DŁUGA (Politechnika)",51.1236143100,17.0109206500
2031,20621,"pl. Bema",51.1175025900,17.0421169100
840,110023,"Hala Targowa",51.1127695100,17.0397359400
3851,51933003,"Durok-skrzy.",51.0143260000,17.1977790000
1711,18727,"Łososiowicka",51.1753050000,16.8822500000
3634,31913010,"Januszkowice - Wrocławska",51.2211867900,17.2384442100
3124,23521,"POŚWIĘTNE",51.1514117300,17.0292892100
1570,20805,"Piastowska",51.1157841300,17.0601010800
3297,50000060,"Trestno",51.0758000000,17.1454640000
3690,31919007,"Raków - skrzy.",51.1678296500,17.2753299100
390,16516,"Chłodna",51.0749863500,16.9968312900
70,18725,"Krzelowska",51.1778574000,16.8781669900
3639,31921008,"Raków IV",51.1556914100,17.2744498300
1034,24727,"Volvo",51.1198228600,17.1145789000
3019,25121,"Sosnowiecka",51.0704598600,17.0915432900
3221,18148,"Małopolska (Ośrodek dla niewidomych)",51.1374574800,16.8988858100
1031,20318,"pl. Wróblewskiego",51.1042237600,17.0483492600
2028,20906,"pl. Bema",51.1175134300,17.0410420900
3585,31909010,"Łozina - Nowego Osiedla II",51.2332024700,17.1650437800
95,18709,"STABŁOWICKA (Ośrodek zdrowia)",51.1674958900,16.8992412400
3125,23022,"POŚWIĘTNE",51.1502082200,17.0287050100
1379,20632,"Daszyńskiego",51.1267406800,17.0484465900
75,18734,"Bojanowska",51.1651292500,16.8813582900
602,24114,"Kwidzyńska",51.1315845700,17.0779541400
1378,23007,"OSOBOWICKA (Cmentarz)",51.1351730000,17.0056344200
3818,23181,"KARŁOWICE",51.1343026500,17.0372263100
784,11537,"Gajowicka",51.0890964900,17.0067361200
2178,89537,"Starodębowa",51.1673829400,17.1059324800
780,23712,"Kasprowicza",51.1380070600,17.0537191700
211,12304,"Kwiska",51.1247132700,16.9844113400
3621,31919002,"Piecowice",51.1445072900,17.2174770300
3863,91606006,"Lutynia I",51.1357000000,16.7719660000
258,12133,"Zemska",51.1164239600,16.9467466100
3356,51943004,"Bogusławice",50.9978370000,17.1046100000
559,24512,"Partyzantów",51.1063131700,17.0920731300
338,16525,"Hippiczna",51.0684791400,17.0089487100
1625,20665,"Słowiańska",51.1236268900,17.0413495500
3016,23517,"Rzemieślnicza",51.1714458000,17.0047036000
142,18312,"Średzka",51.1453562200,16.8666079400
1071,16500,"Skarbowców",51.0669985300,16.9912763800
1214,11716,"Ostrowskiego",51.0957226000,16.9728473700
4042,17728,"Jerzmanowo (Cmentarz II)",51.1231926300,16.8827889600
1682,21007,"Gajowa",51.0917812800,17.0399864400
3730,32627501,"Brzezia Łąka Główna",51.1226151200,17.2649085400
432,25141,"Księska",51.0763938800,17.0901978600
212,12303,"Kwiska",51.1255823700,16.9834199800
2123,18335,"Krajobrazowa",51.1289803400,16.8396436800
1427,20803,"Górnickiego",51.1162530900,17.0549195300
1568,20853,"Piastowska",51.1162081500,17.0609070400
135,18101,"Glinianki",51.1385060900,16.9344320800
2258,12131,"ROD Tysiąclecia",51.1116160700,16.9521954300
836,120826,"Bujwida",51.1136734200,17.0676557400
493,10371,"pl. Orląt Lwowskich",51.1068614100,17.0212558900
3853,32627703,"Brzezia Łąka Główna pętla",51.1217223900,17.2721796500
3471,90336012,"Wilkszyn - Miłoszyn",51.1843236000,16.8710786000
3837,18740,"Wojanowska (Arachidowa)",51.1541800000,16.8991180000
435,25108,"Karwińska",51.0825680100,17.0764368600
1351,25005,"Armii Krajowej",51.0875014300,17.0682828700
1042,12306,"Małopanewska",51.1239023600,16.9868138100
2255,31920023,"Oleśniczka",51.1466091400,17.2804715400
157,91607003,"Gałów - ferma",51.1180276000,16.8253587000
822,120626,"Jedności Narodowej",51.1215483000,17.0435518200
2840,90336001,"Pisarzowice - Kolejowa",51.2137413000,16.8474439000
538,25511,"OPATOWICE",51.0948336300,17.1292184000
310,11535,"Krucza",51.0941305200,17.0095389000
902,12322,"DH Astra",51.1278478600,16.9759912400
3717,31472002,"Węgrów (na wys. nr 19)",51.2644411600,17.2204251900
1705,18390,"RUBCZAKA (Stacja kolejowa)",51.1430309700,16.8668989700
172,17734,"Gałowska",51.1135177200,16.8452426300
1464,23016,"Kamieńskiego",51.1407474500,17.0321338600
3512,20362,"DWORZEC GŁÓWNY",51.0991877800,17.0343344100
84,18128,"Stabłowice",51.1564929900,16.8913875000
2261,12157,"ROD Oświata",51.1009791100,16.9727983900
199,12542,"Bystrzycka",51.1233331100,16.9587513000
474,26105,"Lamowice",51.0494207800,17.0594421200
1218,21125,"Kamienna",51.0849903800,17.0479730000
3129,23515,"ŚWINIARY",51.1966424700,16.9751508600
1817,16720,"Połabian",51.0567143100,16.9713183600
2839,90336004,"Pisarzowice - Szkolna",51.2099469000,16.8514230000
3608,31917003,"Wilczyce - Borowa",51.1300661700,17.1506207600
1189,24124,"Tczewska",51.1314645800,17.1111700100
1038,18704,"Wełniana",51.1608408700,16.9052291400
3796,17724,"JERZMANOWO",51.1205655600,16.8662508700
655,10705,"Kleczkowska",51.1274451500,17.0278245300
3728,31920019,"Brzezia Łąka - skrzy. Główna",51.1233787700,17.2632992100
2796,29554,"PAWŁOWICE (Widawska)",51.1734159700,17.1164216700
3306,50094988,"Siechnice - Wiadukt",51.0357600000,17.1362570000
641,20717,"Trzebnicka",51.1286946500,17.0368436200
3656,31453025,"Domaszczyn - skrzy.",51.1888967000,17.1512384800
74,18722,"Marszowice",51.1678519500,16.8904964100
853,121005,"Joannitów",51.0933776900,17.0362072000
759,29318,"Kowieńska",51.1429610300,17.1356792100
1177,20711,"Dubois",51.1169492400,17.0342119600
1671,18008,"Złotnicka",51.1437594200,16.8899994500
3272,50000062,"TRESTNO (pętla)",51.0747000000,17.1455110000
3789,18120,"Fieldorfa",51.1462510000,16.9079130000
3316,50000005,"SIECHNICE - OSIEDLE",51.0262100000,17.1544650000
102,18719,"Zbożowa",51.1737389600,16.9115269100
2724,10506,"pl. Strzegomski (Muzeum Współczesne)",51.1127548400,17.0071732900
116,12731,"Górnicza",51.1405898600,16.9592038200
565,24508,"BISKUPIN",51.1010322800,17.1095051500
345,26316,"Strachowskiego",51.0582375000,17.0156518200
1981,12302,"Niedźwiedzia",51.1211590400,16.9934766400
1202,31911004,"Kępa",51.2384501300,17.2097710000
1474,23018,"Kępińska",51.1442051000,17.0310752200
1952,11742,"Aleja Wędrowców",51.0886740900,16.9923010800
201,12518,"Hynka",51.1223775500,16.9616045600
2980,23165,"KAMIEŃSKIEGO (pętla)",51.1506991100,17.0430711500
3607,31917004,"Wilczyce - Szkoła",51.1296339100,17.1520280400
979,18520,"Warmińska",51.1464748300,16.9401998300
1285,24320,"Moniuszki",51.1194907100,17.0827921400
2715,18388,"LEŚNICA",51.1446737300,16.8715548200
3642,31919008,"Raków - skrzy.",51.1676435500,17.2760978600
1320,23728,"Sołtysowicka",51.1438147100,17.0713533200
2643,18111,"Stadion Wrocław (Lotnicza)",51.1383796200,16.9425624700
1667,20669,"Wyszyńskiego",51.1223239800,17.0518703600
1603,16404,"Przyjaźni",51.0685021100,17.0035471700
302,11513,"Grochowa",51.0962177400,17.0058089100
1373,24203,"Chopina",51.1167369100,17.0816246200
758,29317,"Kowieńska",51.1429343600,17.1344098300
964,110654,"Pomorska",51.1180115000,17.0307452500
749,31912004,"Dąbrowica",51.2176411400,17.2163361800
3620,31919001,"Piecowice",51.1446005100,17.2171888800
556,24515,"Monte Cassino",51.1064727900,17.1051594100
300,11721,"Inżynierska",51.0947688200,16.9911838000
3527,11339,"Dworzec Główny (Stawowa)",51.0994100000,17.0334990000
3609,31917006,"Wilczyce - Dworska",51.1292884900,17.1549418500
2886,12108,"Nowodworska",51.1137697500,16.9647924500
872,120804,"Górnickiego",51.1163268200,17.0559631700
1468,25009,"Karwińska",51.0819435600,17.0769604500
676,23506,"OSOBOWICE (Stacja kolejowa)",51.1659480200,16.9985915600
864,11308,"KRZYKI",51.0757394700,17.0076464900
3453,11523,"Krucza (Mielecka)",51.0934121100,17.0037653100
289,11747,"BLACHARSKA",51.0821011300,16.9896025300
2013,29321,"Szewczenki",51.1417840800,17.1254692100
3482,91607006,"Gałów - Przedszkole",51.1119135000,16.8166652900
1544,10272,"pl. Legionów",51.1048549800,17.0217281600
1165,23145,"Bezpieczna",51.1424594100,17.0256778100
921,11540,"Gajowicka",51.0876546200,17.0067966200
792,18358,"Mokra",51.1715619400,16.8373543400
1574,24411,"Piramowicza",51.1030818500,17.0964061300
2637,20329,"Komuny Paryskiej",51.1015751000,17.0464211600
17,82024003,"ZABRODZIE",51.0567887900,16.9454119800
3131,12738,"KOZANÓW",51.1373875700,16.9688367700
98,18702,"Chwałkowska",51.1595240700,16.9107602900
3226,25517,"Opatowicka nr 59",51.0950859000,17.1159210000
598,24113,"Kwidzyńska",51.1317477900,17.0807512200
1113,26335,"Świt",51.0604797600,17.0257185600
3256,17129,"Tyniecka",51.0721800000,16.9584270000
3687,31922004,"Kiełczów - Sielska Zagroda",51.1237185000,17.1752099400
195,12911,"KUŹNIKI",51.1238390200,16.9499502300
1169,23514,"Zajączkowska",51.1928453600,16.9779146300
837,124421,"Mickiewicza",51.1085166800,17.0726607600
2235,23709,"Przybyszewskiego",51.1401167300,17.0629669600
526,25501,"Rakowiecka",51.0971037900,17.0676725800
1716,16714,"Słoneczna",51.0600289200,16.9747878000
1998,11504,"Stalowa",51.0992164700,17.0012542200
468,25306,"BROCHÓW (Stacja kolejowa)",51.0636048200,17.0837437300
1715,16715,"Słoneczna",51.0588267100,16.9737796700
442,21155,"Gazowa",51.0781518200,17.0704111800
2861,11711,"FAT",51.0945698500,16.9778035600
1527,20628,"Nowowiejska",51.1242391400,17.0448911000
4019,31920028,"Brzezia Łąka-skrzy.Sportowa",51.1236130000,17.2555240000
798,18742,"PRACZE ODRZAŃSKIE",51.1742539400,16.9082498500
3626,30368011,"Borowa - skrz.",51.1949370500,17.2791721200
2617,12608,"Kozanowska",51.1389990200,16.9652739400
3907,21023,"Bardzka",51.0825577700,17.0493748100
999,25135,"Armii Krajowej",51.0866161500,17.0693027800
3568,17136,"Stanki",51.0761615000,16.9738343600
3301,51938004,"Św. Katarzyna - Parkowa",51.0268310000,17.1084520000
472,26103,"Jagodno",51.0587129500,17.0564998800
333,11355,"Jarzębinowa",51.0819217600,17.0167110800
1043,12305,"Małopanewska",51.1240537400,16.9874779200
4040,10248,"Kolejowa",51.1031250000,17.0167010000
232,10509,"Głogowska",51.1176959900,17.0040245600
1593,10602,"Pomorska",51.1172335900,17.0317555200
285,11744,"Ojca Beyzyma",51.0903377300,16.9921321400
575,24316,"SĘPOLNO",51.1137701100,17.1037905700
2930,31920006,"Kiełczów - Wrocławska",51.1409341000,17.1743202900
2302,29528,"ROD Źródło Zdrowia",51.1506856400,17.1085794000
294,11704,"Hutmen",51.0960276600,16.9863183300
3817,26310,"Grota-Roweckiego",51.0507896000,17.0300235400
3334,50000031,"Sulimów",51.0106000000,17.1248810000
3598,30098012,"Mirków - Sportowa",51.1636561400,17.1571042300
3434,90000015,"Krępice",51.1531270000,16.8146390000
3672,31907002,"Krakowiany - skrzy.",51.2638015900,17.1902215400
4027,11525,"Kolbuszowska (Stadion)",51.0940238500,16.9972875400
1514,11454,"Mielecka",51.0895192000,17.0006031400
3199,11614,"OPORÓW",51.0843100000,16.9720010000
1289,20900,"Ogród Botaniczny",51.1169011100,17.0503602800
3558,111406,"pl. Srebrny",51.0986091200,16.9969063500
1556,25007,"Park Wschodni",51.0848858600,17.0721940500
1283,16520,"Radio i Telewizja",51.0718813600,17.0063211100
961,11362,"Wiśniowa",51.0843160800,17.0236254600
1137,12523,"METALOWCÓW (Ośrodek sportu)",51.1295893900,16.9549576600
85,18125,"Ciechocińska",51.1527640000,16.8840550000
3793,20715,"DWORZEC NADODRZE",51.1247390100,17.0338341400
260,12123,"Chociebuska",51.1157845300,16.9585619300
2875,17314,"MIŃSKA (Rondo Rotm. Pileckiego)",51.1072206500,16.9494872000
1743,120815,"PL. GRUNWALDZKI",51.1114382700,17.0603531000
207,12514,"Orlińskiego",51.1225167500,16.9729111300
3759,21107,"Działkowa",51.0777534300,17.0338284800
3065,31908002,"Zaprężyn",51.2520818900,17.1923899500
3253,18132,"Kosmonautów (Nowe Żerniki)",51.1391650000,16.9273250000
552,24312,"Park Szczytnicki",51.1114017700,17.0821702900
549,20302,"Poczta Główna",51.1078565000,17.0456374200
604,24131,"Kwidzyńska",51.1322610500,17.0794591800
1173,23162,"Mochnackiego",51.1422877500,17.0367516800
3288,50094984,"Radwanice - Poprzeczna",51.0528900000,17.1102350000
2277,29516,"ROD Pod Dębem",51.1537050200,17.1044453700
2696,29319,"Inflancka",51.1423978500,17.1297809700
3009,18115,"Kosmonautów (Szpital)",51.1428778100,16.9089670200
3636,31920026,"Oleśniczka - skrzy.",51.1493024500,17.2824804600
198,12541,"Bystrzycka",51.1240566300,16.9580712800
15,12525,"Metalowców",51.1338260900,16.9567351200
1648,20617,"Trzebnicka",51.1281340600,17.0366644300
1315,120632,"Daszyńskiego",51.1267401900,17.0483523400
1437,24402,"Hala Stulecia",51.1070882500,17.0734645200
2300,26111,"ROD Zgoda",51.0660581400,17.0599531500
4030,17732,"Piołunowa",51.1226690000,16.8798300000
2777,17517,"Graniczna (Strachowicka)",51.1110179300,16.8982274700
2536,25011,"Głubczycka",51.0801595500,17.0800100100
994,18530,"Brodzka",51.1581602600,16.9223663000
1818,25314,"BIEŃKOWICE",51.0477088500,17.0910195600
203,12515,"Drzewieckiego",51.1217958200,16.9677468300
1017,120622,"pl. Bema",51.1168715800,17.0419618100
2489,20932,"Katedra",51.1133059000,17.0498472300
2173,23154,"Obornicka (Obwodnica)",51.1570525300,17.0106856000
1541,10271,"pl. Legionów",51.1041631800,17.0225440200
1773,23024,"Kamieńskiego",51.1395513400,17.0315652400
348,26334,"Ołtaszyn",51.0576575900,17.0231508400
1539,23204,"OSOBOWICE",51.1373630200,16.9940769000
3521,10223,"DWORZEC GŁÓWNY",51.1007290600,17.0360707800
3002,120818,"Kliniki",51.1093224100,17.0662813900
1505,20822,"most Grunwaldzki",51.1102121600,17.0553848800
2832,17735,"Żernicka",51.1257694600,16.9117077800
1816,16721,"Połabian",51.0562372400,16.9704749500
3109,25119,"Opolska",51.0649503500,17.0973266400
2259,12112,"Rogowska",51.1103765500,16.9559448100
3802,17710,"Jerzmanowska nr 17",51.1275217100,16.9005955800
540,25513,"Zalewowa",51.0904958400,17.1350791100
2038,26305,"Parafialna",51.0618126800,17.0322664300
2819,10270,"Arkady (Capitol)",51.1013912100,17.0286990600
910,18302,"LEŚNICA",51.1451806200,16.8719948600
3701,31453005,"Zaprężyn - skrzy.",51.2534143900,17.2065055300
2497,1,"Zajezdnia GAJ",51.0892658800,17.0296803600
3823,17110,"Awicenny",51.0883341100,16.9523855800
935,24126,"Kowale (Stacja kolejowa)",51.1341685600,17.1016776000
1567,11402,"Pereca",51.1011168300,17.0079876300
346,26315,"Strachowskiego",51.0585985900,17.0137882700
2772,20925,"PL. GRUNWALDZKI",51.1127135300,17.0650486000
3209,23128,"Wołowska",51.1484230800,17.0302276200
3928,11543,"Modlińska",51.0816957000,17.0006320000
2831,17736,"Żernicka",51.1255770000,16.9123680000
2739,716718,"AUCHAN",51.0520648000,16.9740535400
3292,50000054,"Starodworska",51.0738100000,17.1083680000
832,120854,"Piastowska",51.1153652900,17.0609685000
1865,17312,"MIŃSKA (Rondo Rotm. Pileckiego)",51.1060820400,16.9501998000
1572,12409,"PILCZYCE",51.1360934100,16.9504506500
3547,12906,"KUŹNIKI",51.1235160000,16.9509960000
1093,31919003,"Bielawa",51.1602028300,17.2522432300
475,26106,"Lamowice",51.0498241700,17.0594378700
3324,51942003,"Zębice - Prusa",51.0091070000,17.1658280000
1626,24414,"Spółdzielcza",51.1022057200,17.1023223200
227,10525,"Długa",51.1190835700,17.0152833600
535,25507,"Nowy Dom",51.0933543500,17.1072604700
2828,29104,"Psie Pole",51.1458270000,17.1115630000
2299,16718,"ROD Bielany",51.0553851700,16.9776400000
1027,24122,"Działdowska",51.1331588800,17.1057941900
680,23513,"Zajączkowska",51.1933045800,16.9781417200
553,24504,"Tramwajowa",51.1042905300,17.0838771700
3484,90336007,"Pisarzowice - Graniczna",51.1972415000,16.8548221000
1487,20262,"Komuny Paryskiej",51.1022548400,17.0466215400
645,23161,"Mochnackiego",51.1419850600,17.0366010800
3534,20720,"Słonimskiego",51.1306140000,17.0450780000
151,18319,"Szkolna",51.1325609400,16.8481176300
396,11307,"KRZYKI",51.0752719000,17.0066644200
895,18347,"ŻAR",51.1498370000,16.8345170000
2531,10531,"pl. Orląt Lwowskich",51.1076744900,17.0210016700
3891,11303,"Hallera",51.0871386900,17.0124994200
611,24104,"Grudziądzka",51.1378804900,17.0736345400
3644,31371008,"Siedlec - Wrocławska/sklep",51.2310880600,17.1158433200
941,16509,"Partynice",51.0613050000,16.9959718300
1712,18728,"Łososiowicka",51.1757095400,16.8811538800
1269,11318,"Sztabowa",51.0880624400,17.0143858000
2867,20920,"PL. GRUNWALDZKI",51.1119811600,17.0640336000
3541,23563,"Cynamonowa",51.1759210000,16.9981530000
3345,50000041,"Iwiny - Brochowska",51.0405800000,17.0736210000
745,31341012,"Szczodre - Trzebnicka",51.1905888200,17.1839484100
614,20724,"Mosty Warszawskie",51.1280013700,17.0548583700
1645,21017,"Transbud",51.0836768100,17.0602039000
3442,12903,"KUŹNIKI",51.1233022100,16.9501394500
1531,11651,"Ojca Beyzyma",51.0903690000,16.9933187300
1081,31453009,"Bierzyce",51.2357831700,17.1837669600
422,25115,"Zagłębiowska",51.0727551600,17.0891407500
2362,12612,"Górnicza",51.1399883700,16.9597107400
210,12315,"Wejherowska",51.1298272000,16.9851259800
3455,24323,"Godebskiego (AWF Wrocław)",51.1137708800,17.0984612900
229,10514,"Szczepin",51.1170944100,17.0079669000
1156,11530,"Żelazna",51.0961279600,17.0124964900
1439,10023,"Hala Targowa",51.1127688000,17.0395733100
1036,31341009,"Szczodre - Szkoła",51.1981127400,17.1896107900
1564,10232,"Renoma",51.1037495200,17.0306378200
1085,31918001,"Długołęka - Kościół",51.1728754300,17.1936051400
1004,110104,"Rynek",51.1119538700,17.0271183500
318,11346,"Rondo",51.0916681300,17.0158075500
3535,20719,"Słonimskiego",51.1306780000,17.0444240000
2944,12144,"Nowy Dwór (Stacja kolejowa)",51.1195270400,16.9530757300
2529,25311,"Arabska",51.0511576500,17.0923256000
799,18743,"PRACZE ODRZAŃSKIE",51.1742880000,16.9054920000
1666,20670,"Wyszyńskiego",51.1219185200,17.0529416500
1142,112206,"Kwiska",51.1252750000,16.9835144300
545,10101,"Świdnicka",51.1074360100,17.0328863800
1766,21137,"Morwowa",51.0765464300,17.0531701700
1233,11372,"Uniwersytet Ekonomiczny",51.0900816400,17.0291803800
692,23532,"Polanowicka",51.1696374100,17.0241751600
3056,18391,"Rubczaka",51.1441942900,16.8659648400
312,11541,"Zaporoska",51.0965397500,17.0145216700
1781,18304,"Zajazdowa",51.1478387100,16.8656115900
1748,20824,"PL. GRUNWALDZKI",51.1114443900,17.0599596000
1472,20809,"Katedra",51.1142165900,17.0504584200
2893,12609,"KOZANÓW (Dokerska)",51.1412835600,16.9640954100
2937,17130,"Kwiatkowskiego (Rondo)",51.0725259700,16.9536394100
3706,31453017,"Łozina - Wrocławska (na wys. nr 18)",51.2300115600,17.1725796400
2639,20328,"Kościuszki",51.1002515500,17.0454552200
2310,125003,"KRAKOWSKA (Centrum handlowe)",51.0891053100,17.0659851700
3467,90336900,"Wilkszyn (pętla)",51.1917357800,16.8628483500
271,17303,"Muchobór Wielki",51.0988644700,16.9412746000
316,11336,"Pl. Hirszfelda",51.0938214700,17.0179590500
395,16517,"Wawrzyniaka",51.0780740000,16.9982022000
1707,20901,"Ogród Botaniczny",51.1165508400,17.0523867300
61,18355,"Dolnobrzeska",51.1550175700,16.8594144100
1217,26308,"Gałczyńskiego",51.0542845600,17.0322495300
950,26321,"Oboźna",51.0596915200,17.0324623800
507,11301,"Rondo",51.0916063600,17.0178479900
1596,10654,"Pomorska",51.1180575500,17.0305601600
3650,31371013,"Pasikurowice - cmentarz",51.2043250600,17.1009822500
1599,21009,"Prudnicka",51.0892028400,17.0450511600
2275,29511,"Zakrzowska",51.1506056200,17.1155360800
678,23509,"LIPA PIOTROWSKA",51.1727489300,16.9950801900
3601,31341011,"Szczodre - pętla",51.1945124200,17.1828914400
2348,10008,"ŚWIDNICKA (Dom Europy)",51.1068121200,17.0334133800
3520,20269,"DWORZEC GŁÓWNY",51.0996270300,17.0351616700
3613,31920001,"Kiełczów - Ładna",51.1436172500,17.1600064300
1500,24009,"Kwidzyńska",51.1315553500,17.0796554100
1445,11604,"Hutmen",51.0958967300,16.9857695900
2666,726951,"Wysoka",51.0463100400,17.0121329900
3718,32623608,"Domaszczyn Stawowa",51.1889224900,17.1504650200
774,31917012,"Kiełczów - osiedle",51.1325442000,17.1725084400
603,24132,"Kwidzyńska",51.1305853100,17.0783376700
1140,12714,"Wiślańska",51.1363878900,16.9789074900
3107,21160,"PETRUSEWICZA",51.0914570000,17.0327200800
912,18325,"RATYŃ",51.1296803000,16.8606577700
87,18123,"Śnieżna",51.1496842800,16.8793580400
1398,21002,"DWORZEC AUTOBUSOWY",51.0974641500,17.0327766200
1438,10024,"Hala Targowa",51.1126609800,17.0394104900
127,12702,"Kolista",51.1326958400,16.9726114500
2289,21178,"ROD Bajki",51.0834244500,17.0340740400
1013,723966,"Bielany - PKP",51.0375729600,16.9773535600
634,23720,"Poprzeczna",51.1457814800,17.0729631000
3862,91606005,"Lutynia I",51.1357120000,16.7717810000
3742,31480006,"Borowa - skrz.",51.1962339200,17.2798677500
248,10545,"Śrubowa",51.1119080700,17.0001085800
1384,12401,"DH Astra",51.1281382200,16.9760575700
672,23504,"Ostowa",51.1625585900,17.0024157900
3903,11209,"Hallera",51.0867606000,17.0123529300
1465,23015,"Kamieńskiego",51.1409766200,17.0322222300
2477,18359,"Las Mokrzański",51.1761020000,16.8335630000
246,10546,"Śrubowa",51.1112815600,17.0030202800
112,18523,"Turoszowska",51.1530520600,16.9476315600
1688,10104,"Rynek",51.1119722800,17.0272170900
384,16502,"Zimowa",51.0713285300,17.0000093600
1326,12319,"Hala Orbita",51.1323514000,16.9894391000
3326,50000021,"Zębice - Trzech Lip/Prusa",51.0029190000,17.1556600000
3881,29326,"LITEWSKA",51.1423253700,17.1278740000
3214,23020,"Wołowska",51.1481479500,17.0298805600
533,25504,"Międzyrzecka",51.0949543400,17.0807391400
887,25305,"BROCHÓW (Stacja kolejowa)",51.0637473200,17.0824959800
3021,31480004,"Stępin",51.2088041400,17.2805974900
1502,12205,"Kwiska",51.1254882000,16.9832065900
96,18703,"Wełniana",51.1611804100,16.9044891100
339,16511,"Przyjaźni",51.0678664200,17.0037727500
824,123008,"OSOBOWICKA (Cmentarz)",51.1350846600,17.0055331100
194,12524,"METALOWCÓW (Ośrodek sportu)",51.1298659200,16.9549646700
805,20922,"PL. GRUNWALDZKI",51.1120574500,17.0628862800
764,29304,"Zgorzelisko",51.1389264900,17.1306132600
2781,29926,"Kiełczowska (Cmentarz)",51.1453417900,17.1480205300
434,25109,"Karwińska",51.0813706000,17.0781845600
3560,11405,"pl. Srebrny",51.0984846500,16.9961321000
2361,12611,"Górnicza",51.1401983600,16.9594507900
657,10712,"Dubois",51.1164097300,17.0332959000
2906,25308,"Semaforowa",51.0617030100,17.0795609300
179,17703,"Żerniki",51.1236331100,16.9229511900
606,24134,"Brücknera",51.1385841700,17.0814245700
1631,11403,"Stalowa",51.0994707600,17.0004263700
1622,20683,"Słowiańska",51.1234541000,17.0404781200
73,18721,"Marszowice",51.1674065000,16.8911978100
757,29314,"Kiełczowska",51.1457117100,17.1357537300
696,227904,"Szymanów - skrzyż.",51.1884068400,17.0305035300
1571,20854,"Piastowska",51.1153658200,17.0608780600
1476,24007,"Kętrzyńska",51.1308779600,17.0744822500
3183,11734,"OPORÓW",51.0841500000,16.9718980000
